[
  {
    "last_update": "2020-09-07 17:28:34 UTC",
    "location_type": "county",
    "state": "Alabama",
    "county_name": "Autauga",
    "county_name_long": "Autauga, Alabama, US",
    "fips_code": 1001,
    "lat": 32.53952745,
    "lon": -86.64408227,
    "nchs_urbanization": "Medium metro",
    "total_population": 55200,
    "confirmed": 1383,
    "confirmed_per_100000": 2505.43,
    "deaths": 23,
    "deaths_per_100000": 41.67,
    "location": "POINT(-86.64408227 32.53952745)"
  },
  {
    "last_update": "2020-09-07 17:28:34 UTC",
    "location_type": "county",
    "state": "Alabama",
    "county_name": "Baldwin",
    "county_name_long": "Baldwin, Alabama, US",
    "fips_code": 1003,
    "lat": 30.72774991,
    "lon": -87.72207058,
    "nchs_urbanization": "Small metro",
    "total_population": 208107,
    "confirmed": 4586,
    "confirmed_per_100000": 2203.67,
    "deaths": 42,
    "deaths_per_100000": 20.18,
    "location": "POINT(-87.72207058 30.72774991)"
  },
  {
    "last_update": "2020-09-07 17:28:34 UTC",
    "location_type": "county",
    "state": "Alabama",
    "county_name": "Barbour",
    "county_name_long": "Barbour, Alabama, US",
    "fips_code": 1005,
    "lat": 31.868263,
    "lon": -85.3871286,
    "nchs_urbanization": "Non-core",
    "total_population": 25782,
    "confirmed": 617,
    "confirmed_per_100000": 2393.14,
    "deaths": 7,
    "deaths_per_100000": 27.15,
    "location": "POINT(-85.3871286 31.868263)"
  },
  {
    "last_update": "2020-09-07 17:28:34 UTC",
    "location_type": "county",
    "state": "Alabama",
    "county_name": "Bibb",
    "county_name_long": "Bibb, Alabama, US",
    "fips_code": 1007,
    "lat": 32.99642064,
    "lon": -87.1251146,
    "nchs_urbanization": "Large fringe metro",
    "total_population": 22527,
    "confirmed": 557,
    "confirmed_per_100000": 2472.59,
    "deaths": 6,
    "deaths_per_100000": 26.63,
    "location": "POINT(-87.1251146 32.99642064)"
  },
  {
    "last_update": "2020-09-07 17:28:34 UTC",
    "location_type": "county",
    "state": "Alabama",
    "county_name": "Blount",
    "county_name_long": "Blount, Alabama, US",
    "fips_code": 1009,
    "lat": 33.98210918,
    "lon": -86.56790593,
    "nchs_urbanization": "Large fringe metro",
    "total_population": 57645,
    "confirmed": 1070,
    "confirmed_per_100000": 1856.19,
    "deaths": 12,
    "deaths_per_100000": 20.82,
    "location": "POINT(-86.56790593 33.98210918)"
  },
  {
    "last_update": "2020-09-07 17:28:34 UTC",
    "location_type": "county",
    "state": "Alabama",
    "county_name": "Bullock",
    "county_name_long": "Bullock, Alabama, US",
    "fips_code": 1011,
    "lat": 32.10030533,
    "lon": -85.71265535,
    "nchs_urbanization": "Non-core",
    "total_population": 10352,
    "confirmed": 545,
    "confirmed_per_100000": 5264.68,
    "deaths": 13,
    "deaths_per_100000": 125.58,
    "location": "POINT(-85.71265535 32.10030533)"
  },
  {
    "last_update": "2020-09-07 17:28:34 UTC",
    "location_type": "county",
    "state": "Alabama",
    "county_name": "Butler",
    "county_name_long": "Butler, Alabama, US",
    "fips_code": 1013,
    "lat": 31.75300095,
    "lon": -86.68057478,
    "nchs_urbanization": "Non-core",
    "total_population": 20025,
    "confirmed": 859,
    "confirmed_per_100000": 4289.64,
    "deaths": 37,
    "deaths_per_100000": 184.77,
    "location": "POINT(-86.68057478 31.75300095)"
  },
  {
    "last_update": "2020-09-07 17:28:34 UTC",
    "location_type": "county",
    "state": "Alabama",
    "county_name": "Calhoun",
    "county_name_long": "Calhoun, Alabama, US",
    "fips_code": 1015,
    "lat": 33.77483727,
    "lon": -85.82630386,
    "nchs_urbanization": "Small metro",
    "total_population": 115098,
    "confirmed": 2593,
    "confirmed_per_100000": 2252.86,
    "deaths": 31,
    "deaths_per_100000": 26.93,
    "location": "POINT(-85.82630386 33.77483727)"
  },
  {
    "last_update": "2020-09-07 17:28:34 UTC",
    "location_type": "county",
    "state": "Alabama",
    "county_name": "Chambers",
    "county_name_long": "Chambers, Alabama, US",
    "fips_code": 1017,
    "lat": 32.91360079,
    "lon": -85.39072749,
    "nchs_urbanization": "Micropolitan",
    "total_population": 33826,
    "confirmed": 857,
    "confirmed_per_100000": 2533.55,
    "deaths": 40,
    "deaths_per_100000": 118.25,
    "location": "POINT(-85.39072749 32.91360079)"
  },
  {
    "last_update": "2020-09-07 17:28:34 UTC",
    "location_type": "county",
    "state": "Alabama",
    "county_name": "Cherokee",
    "county_name_long": "Cherokee, Alabama, US",
    "fips_code": 1019,
    "lat": 34.17805983,
    "lon": -85.60638968,
    "nchs_urbanization": "Non-core",
    "total_population": 25853,
    "confirmed": 367,
    "confirmed_per_100000": 1419.56,
    "deaths": 11,
    "deaths_per_100000": 42.55,
    "location": "POINT(-85.60638968 34.17805983)"
  },
  {
    "last_update": "2020-09-07 17:28:34 UTC",
    "location_type": "county",
    "state": "Alabama",
    "county_name": "Chilton",
    "county_name_long": "Chilton, Alabama, US",
    "fips_code": 1021,
    "lat": 32.85044126,
    "lon": -86.7173256,
    "nchs_urbanization": "Large fringe metro",
    "total_population": 43930,
    "confirmed": 1168,
    "confirmed_per_100000": 2658.78,
    "deaths": 12,
    "deaths_per_100000": 27.32,
    "location": "POINT(-86.7173256 32.85044126)"
  },
  {
    "last_update": "2020-09-07 17:28:34 UTC",
    "location_type": "county",
    "state": "Alabama",
    "county_name": "Choctaw",
    "county_name_long": "Choctaw, Alabama, US",
    "fips_code": 1023,
    "lat": 32.02227341,
    "lon": -88.2656443,
    "nchs_urbanization": "Non-core",
    "total_population": 13075,
    "confirmed": 325,
    "confirmed_per_100000": 2485.66,
    "deaths": 12,
    "deaths_per_100000": 91.78,
    "location": "POINT(-88.2656443 32.02227341)"
  },
  {
    "last_update": "2020-09-07 17:28:34 UTC",
    "location_type": "county",
    "state": "Alabama",
    "county_name": "Clarke",
    "county_name_long": "Clarke, Alabama, US",
    "fips_code": 1025,
    "lat": 31.68099859,
    "lon": -87.83548597,
    "nchs_urbanization": "Non-core",
    "total_population": 24387,
    "confirmed": 930,
    "confirmed_per_100000": 3813.51,
    "deaths": 13,
    "deaths_per_100000": 53.31,
    "location": "POINT(-87.83548597 31.68099859)"
  },
  {
    "last_update": "2020-09-07 17:28:34 UTC",
    "location_type": "county",
    "state": "Alabama",
    "county_name": "Clay",
    "county_name_long": "Clay, Alabama, US",
    "fips_code": 1027,
    "lat": 33.26984193,
    "lon": -85.85836077,
    "nchs_urbanization": "Non-core",
    "total_population": 13378,
    "confirmed": 401,
    "confirmed_per_100000": 2997.46,
    "deaths": 6,
    "deaths_per_100000": 44.85,
    "location": "POINT(-85.85836077 33.26984193)"
  },
  {
    "last_update": "2020-09-07 17:28:34 UTC",
    "location_type": "county",
    "state": "Alabama",
    "county_name": "Cleburne",
    "county_name_long": "Cleburne, Alabama, US",
    "fips_code": 1029,
    "lat": 33.67679204,
    "lon": -85.52005899,
    "nchs_urbanization": "Non-core",
    "total_population": 14938,
    "confirmed": 239,
    "confirmed_per_100000": 1599.95,
    "deaths": 5,
    "deaths_per_100000": 33.47,
    "location": "POINT(-85.52005899 33.67679204)"
  },
  {
    "last_update": "2020-09-07 17:28:34 UTC",
    "location_type": "county",
    "state": "Alabama",
    "county_name": "Coffee",
    "county_name_long": "Coffee, Alabama, US",
    "fips_code": 1031,
    "lat": 31.39932826,
    "lon": -85.98901039,
    "nchs_urbanization": "Micropolitan",
    "total_population": 51288,
    "confirmed": 982,
    "confirmed_per_100000": 1914.68,
    "deaths": 5,
    "deaths_per_100000": 9.75,
    "location": "POINT(-85.98901039 31.39932826)"
  },
  {
    "last_update": "2020-09-07 17:28:34 UTC",
    "location_type": "county",
    "state": "Alabama",
    "county_name": "Colbert",
    "county_name_long": "Colbert, Alabama, US",
    "fips_code": 1033,
    "lat": 34.69847452,
    "lon": -87.80168544,
    "nchs_urbanization": "Small metro",
    "total_population": 54495,
    "confirmed": 1480,
    "confirmed_per_100000": 2715.85,
    "deaths": 22,
    "deaths_per_100000": 40.37,
    "location": "POINT(-87.80168544 34.69847452)"
  },
  {
    "last_update": "2020-09-07 17:28:34 UTC",
    "location_type": "county",
    "state": "Alabama",
    "county_name": "Conecuh",
    "county_name_long": "Conecuh, Alabama, US",
    "fips_code": 1035,
    "lat": 31.43401703,
    "lon": -86.99320044,
    "nchs_urbanization": "Non-core",
    "total_population": 12514,
    "confirmed": 437,
    "confirmed_per_100000": 3492.09,
    "deaths": 11,
    "deaths_per_100000": 87.9,
    "location": "POINT(-86.99320044 31.43401703)"
  },
  {
    "last_update": "2020-09-07 17:28:34 UTC",
    "location_type": "county",
    "state": "Alabama",
    "county_name": "Coosa",
    "county_name_long": "Coosa, Alabama, US",
    "fips_code": 1037,
    "lat": 32.93690146,
    "lon": -86.24847739,
    "nchs_urbanization": "Micropolitan",
    "total_population": 10855,
    "confirmed": 110,
    "confirmed_per_100000": 1013.36,
    "deaths": 3,
    "deaths_per_100000": 27.64,
    "location": "POINT(-86.24847739 32.93690146)"
  },
  {
    "last_update": "2020-09-07 17:28:34 UTC",
    "location_type": "county",
    "state": "Alabama",
    "county_name": "Covington",
    "county_name_long": "Covington, Alabama, US",
    "fips_code": 1039,
    "lat": 31.2477854,
    "lon": -86.45050893,
    "nchs_urbanization": "Non-core",
    "total_population": 37351,
    "confirmed": 817,
    "confirmed_per_100000": 2187.36,
    "deaths": 25,
    "deaths_per_100000": 66.93,
    "location": "POINT(-86.45050893 31.2477854)"
  },
  {
    "last_update": "2020-09-07 17:28:34 UTC",
    "location_type": "county",
    "state": "Alabama",
    "county_name": "Crenshaw",
    "county_name_long": "Crenshaw, Alabama, US",
    "fips_code": 1041,
    "lat": 31.72941803,
    "lon": -86.31593104,
    "nchs_urbanization": "Non-core",
    "total_population": 13865,
    "confirmed": 401,
    "confirmed_per_100000": 2892.17,
    "deaths": 31,
    "deaths_per_100000": 223.58,
    "location": "POINT(-86.31593104 31.72941803)"
  },
  {
    "last_update": "2020-09-07 17:28:34 UTC",
    "location_type": "county",
    "state": "Alabama",
    "county_name": "Cullman",
    "county_name_long": "Cullman, Alabama, US",
    "fips_code": 1043,
    "lat": 34.13020303,
    "lon": -86.86888037,
    "nchs_urbanization": "Micropolitan",
    "total_population": 82313,
    "confirmed": 1480,
    "confirmed_per_100000": 1798.01,
    "deaths": 15,
    "deaths_per_100000": 18.22,
    "location": "POINT(-86.86888037 34.13020303)"
  },
  {
    "last_update": "2020-09-07 17:28:34 UTC",
    "location_type": "county",
    "state": "Alabama",
    "county_name": "Dale",
    "county_name_long": "Dale, Alabama, US",
    "fips_code": 1045,
    "lat": 31.43037123,
    "lon": -85.61095742,
    "nchs_urbanization": "Micropolitan",
    "total_population": 49255,
    "confirmed": 1030,
    "confirmed_per_100000": 2091.16,
    "deaths": 42,
    "deaths_per_100000": 85.27,
    "location": "POINT(-85.61095742 31.43037123)"
  },
  {
    "last_update": "2020-09-07 17:28:34 UTC",
    "location_type": "county",
    "state": "Alabama",
    "county_name": "Dallas",
    "county_name_long": "Dallas, Alabama, US",
    "fips_code": 1047,
    "lat": 32.32688101,
    "lon": -87.1086671,
    "nchs_urbanization": "Micropolitan",
    "total_population": 40029,
    "confirmed": 1449,
    "confirmed_per_100000": 3619.88,
    "deaths": 25,
    "deaths_per_100000": 62.45,
    "location": "POINT(-87.1086671 32.32688101)"
  },
  {
    "last_update": "2020-09-07 17:28:34 UTC",
    "location_type": "county",
    "state": "Alabama",
    "county_name": "DeKalb",
    "county_name_long": "DeKalb, Alabama, US",
    "fips_code": 1049,
    "lat": 34.45946862,
    "lon": -85.80782906,
    "nchs_urbanization": "Non-core",
    "total_population": 71200,
    "confirmed": 2111,
    "confirmed_per_100000": 2964.89,
    "deaths": 16,
    "deaths_per_100000": 22.47,
    "location": "POINT(-85.80782906 34.45946862)"
  },
  {
    "last_update": "2020-09-07 17:28:34 UTC",
    "location_type": "county",
    "state": "Alabama",
    "county_name": "Elmore",
    "county_name_long": "Elmore, Alabama, US",
    "fips_code": 1051,
    "lat": 32.59785413,
    "lon": -86.14415284,
    "nchs_urbanization": "Medium metro",
    "total_population": 81212,
    "confirmed": 2124,
    "confirmed_per_100000": 2615.38,
    "deaths": 44,
    "deaths_per_100000": 54.18,
    "location": "POINT(-86.14415284 32.59785413)"
  },
  {
    "last_update": "2020-09-07 17:28:34 UTC",
    "location_type": "county",
    "state": "Alabama",
    "county_name": "Escambia",
    "county_name_long": "Escambia, Alabama, US",
    "fips_code": 1053,
    "lat": 31.1256789,
    "lon": -87.15918694,
    "nchs_urbanization": "Non-core",
    "total_population": 37328,
    "confirmed": 1257,
    "confirmed_per_100000": 3367.45,
    "deaths": 22,
    "deaths_per_100000": 58.94,
    "location": "POINT(-87.15918694 31.1256789)"
  },
  {
    "last_update": "2020-09-07 17:28:34 UTC",
    "location_type": "county",
    "state": "Alabama",
    "county_name": "Etowah",
    "county_name_long": "Etowah, Alabama, US",
    "fips_code": 1055,
    "lat": 34.04567266,
    "lon": -86.04051873,
    "nchs_urbanization": "Small metro",
    "total_population": 102939,
    "confirmed": 2774,
    "confirmed_per_100000": 2694.8,
    "deaths": 42,
    "deaths_per_100000": 40.8,
    "location": "POINT(-86.04051873 34.04567266)"
  },
  {
    "last_update": "2020-09-07 17:28:34 UTC",
    "location_type": "county",
    "state": "Alabama",
    "county_name": "Fayette",
    "county_name_long": "Fayette, Alabama, US",
    "fips_code": 1057,
    "lat": 33.72076938,
    "lon": -87.73886638,
    "nchs_urbanization": "Non-core",
    "total_population": 16585,
    "confirmed": 316,
    "confirmed_per_100000": 1905.34,
    "deaths": 6,
    "deaths_per_100000": 36.18,
    "location": "POINT(-87.73886638 33.72076938)"
  },
  {
    "last_update": "2020-09-07 17:28:34 UTC",
    "location_type": "county",
    "state": "Alabama",
    "county_name": "Franklin",
    "county_name_long": "Franklin, Alabama, US",
    "fips_code": 1059,
    "lat": 34.44235334,
    "lon": -87.84289505,
    "nchs_urbanization": "Non-core",
    "total_population": 31542,
    "confirmed": 1600,
    "confirmed_per_100000": 5072.6,
    "deaths": 27,
    "deaths_per_100000": 85.6,
    "location": "POINT(-87.84289505 34.44235334)"
  },
  {
    "last_update": "2020-09-07 17:28:34 UTC",
    "location_type": "county",
    "state": "Alabama",
    "county_name": "Geneva",
    "county_name_long": "Geneva, Alabama, US",
    "fips_code": 1061,
    "lat": 31.09389027,
    "lon": -85.83572839,
    "nchs_urbanization": "Small metro",
    "total_population": 26491,
    "confirmed": 398,
    "confirmed_per_100000": 1502.4,
    "deaths": 3,
    "deaths_per_100000": 11.32,
    "location": "POINT(-85.83572839 31.09389027)"
  },
  {
    "last_update": "2020-09-07 17:28:34 UTC",
    "location_type": "county",
    "state": "Alabama",
    "county_name": "Greene",
    "county_name_long": "Greene, Alabama, US",
    "fips_code": 1063,
    "lat": 32.85504247,
    "lon": -87.95684022,
    "nchs_urbanization": "Non-core",
    "total_population": 8426,
    "confirmed": 282,
    "confirmed_per_100000": 3346.78,
    "deaths": 14,
    "deaths_per_100000": 166.15,
    "location": "POINT(-87.95684022 32.85504247)"
  },
  {
    "last_update": "2020-09-07 17:28:34 UTC",
    "location_type": "county",
    "state": "Alabama",
    "county_name": "Hale",
    "county_name_long": "Hale, Alabama, US",
    "fips_code": 1065,
    "lat": 32.76039258,
    "lon": -87.63284988,
    "nchs_urbanization": "Small metro",
    "total_population": 14887,
    "confirmed": 542,
    "confirmed_per_100000": 3640.76,
    "deaths": 27,
    "deaths_per_100000": 181.37,
    "location": "POINT(-87.63284988 32.76039258)"
  },
  {
    "last_update": "2020-09-07 17:28:34 UTC",
    "location_type": "county",
    "state": "Alabama",
    "county_name": "Henry",
    "county_name_long": "Henry, Alabama, US",
    "fips_code": 1067,
    "lat": 31.51148016,
    "lon": -85.24267944,
    "nchs_urbanization": "Small metro",
    "total_population": 17124,
    "confirmed": 345,
    "confirmed_per_100000": 2014.72,
    "deaths": 3,
    "deaths_per_100000": 17.52,
    "location": "POINT(-85.24267944 31.51148016)"
  },
  {
    "last_update": "2020-09-07 17:28:34 UTC",
    "location_type": "county",
    "state": "Alabama",
    "county_name": "Houston",
    "county_name_long": "Houston, Alabama, US",
    "fips_code": 1069,
    "lat": 31.15197924,
    "lon": -85.29939599,
    "nchs_urbanization": "Small metro",
    "total_population": 104352,
    "confirmed": 1923,
    "confirmed_per_100000": 1842.8,
    "deaths": 15,
    "deaths_per_100000": 14.37,
    "location": "POINT(-85.29939599 31.15197924)"
  },
  {
    "last_update": "2020-09-07 17:28:34 UTC",
    "location_type": "county",
    "state": "Alabama",
    "county_name": "Jackson",
    "county_name_long": "Jackson, Alabama, US",
    "fips_code": 1071,
    "lat": 34.78144169,
    "lon": -85.99750489,
    "nchs_urbanization": "Micropolitan",
    "total_population": 52094,
    "confirmed": 1321,
    "confirmed_per_100000": 2535.8,
    "deaths": 7,
    "deaths_per_100000": 13.44,
    "location": "POINT(-85.99750489 34.78144169)"
  },
  {
    "last_update": "2020-09-07 17:28:34 UTC",
    "location_type": "county",
    "state": "Alabama",
    "county_name": "Jefferson",
    "county_name_long": "Jefferson, Alabama, US",
    "fips_code": 1073,
    "lat": 33.55554728,
    "lon": -86.895063,
    "nchs_urbanization": "Large central metro",
    "total_population": 659892,
    "confirmed": 16703,
    "confirmed_per_100000": 2531.17,
    "deaths": 305,
    "deaths_per_100000": 46.22,
    "location": "POINT(-86.895063 33.55554728)"
  },
  {
    "last_update": "2020-09-07 17:28:34 UTC",
    "location_type": "county",
    "state": "Alabama",
    "county_name": "Lamar",
    "county_name_long": "Lamar, Alabama, US",
    "fips_code": 1075,
    "lat": 33.77995024,
    "lon": -88.09668032,
    "nchs_urbanization": "Non-core",
    "total_population": 13933,
    "confirmed": 282,
    "confirmed_per_100000": 2023.97,
    "deaths": 2,
    "deaths_per_100000": 14.35,
    "location": "POINT(-88.09668032 33.77995024)"
  },
  {
    "last_update": "2020-09-07 17:28:34 UTC",
    "location_type": "county",
    "state": "Alabama",
    "county_name": "Lauderdale",
    "county_name_long": "Lauderdale, Alabama, US",
    "fips_code": 1077,
    "lat": 34.90171875,
    "lon": -87.65624729,
    "nchs_urbanization": "Small metro",
    "total_population": 92585,
    "confirmed": 1479,
    "confirmed_per_100000": 1597.45,
    "deaths": 25,
    "deaths_per_100000": 27,
    "location": "POINT(-87.65624729 34.90171875)"
  },
  {
    "last_update": "2020-09-07 17:28:34 UTC",
    "location_type": "county",
    "state": "Alabama",
    "county_name": "Lawrence",
    "county_name_long": "Lawrence, Alabama, US",
    "fips_code": 1079,
    "lat": 34.52041498,
    "lon": -87.31069453,
    "nchs_urbanization": "Small metro",
    "total_population": 33171,
    "confirmed": 505,
    "confirmed_per_100000": 1522.41,
    "deaths": 5,
    "deaths_per_100000": 15.07,
    "location": "POINT(-87.31069453 34.52041498)"
  },
  {
    "last_update": "2020-09-07 17:28:34 UTC",
    "location_type": "county",
    "state": "Alabama",
    "county_name": "Lee",
    "county_name_long": "Lee, Alabama, US",
    "fips_code": 1081,
    "lat": 32.60154883,
    "lon": -85.35132246,
    "nchs_urbanization": "Small metro",
    "total_population": 159287,
    "confirmed": 3511,
    "confirmed_per_100000": 2204.2,
    "deaths": 49,
    "deaths_per_100000": 30.76,
    "location": "POINT(-85.35132246 32.60154883)"
  },
  {
    "last_update": "2020-09-07 17:28:34 UTC",
    "location_type": "county",
    "state": "Alabama",
    "county_name": "Limestone",
    "county_name_long": "Limestone, Alabama, US",
    "fips_code": 1083,
    "lat": 34.81185586,
    "lon": -86.98310072,
    "nchs_urbanization": "Medium metro",
    "total_population": 93052,
    "confirmed": 1706,
    "confirmed_per_100000": 1833.38,
    "deaths": 18,
    "deaths_per_100000": 19.34,
    "location": "POINT(-86.98310072 34.81185586)"
  },
  {
    "last_update": "2020-09-07 17:28:34 UTC",
    "location_type": "county",
    "state": "Alabama",
    "county_name": "Lowndes",
    "county_name_long": "Lowndes, Alabama, US",
    "fips_code": 1085,
    "lat": 32.1597283,
    "lon": -86.65158371,
    "nchs_urbanization": "Medium metro",
    "total_population": 10236,
    "confirmed": 604,
    "confirmed_per_100000": 5900.74,
    "deaths": 25,
    "deaths_per_100000": 244.24,
    "location": "POINT(-86.65158371 32.1597283)"
  },
  {
    "last_update": "2020-09-07 17:28:34 UTC",
    "location_type": "county",
    "state": "Alabama",
    "county_name": "Macon",
    "county_name_long": "Macon, Alabama, US",
    "fips_code": 1087,
    "lat": 32.38759944,
    "lon": -85.69267724,
    "nchs_urbanization": "Non-core",
    "total_population": 19054,
    "confirmed": 412,
    "confirmed_per_100000": 2162.28,
    "deaths": 17,
    "deaths_per_100000": 89.22,
    "location": "POINT(-85.69267724 32.38759944)"
  },
  {
    "last_update": "2020-09-07 17:28:34 UTC",
    "location_type": "county",
    "state": "Alabama",
    "county_name": "Madison",
    "county_name_long": "Madison, Alabama, US",
    "fips_code": 1089,
    "lat": 34.76327133,
    "lon": -86.55069633,
    "nchs_urbanization": "Medium metro",
    "total_population": 357560,
    "confirmed": 6592,
    "confirmed_per_100000": 1843.61,
    "deaths": 57,
    "deaths_per_100000": 15.94,
    "location": "POINT(-86.55069633 34.76327133)"
  },
  {
    "last_update": "2020-09-07 17:28:34 UTC",
    "location_type": "county",
    "state": "Alabama",
    "county_name": "Marengo",
    "county_name_long": "Marengo, Alabama, US",
    "fips_code": 1091,
    "lat": 32.24767634,
    "lon": -87.78796182,
    "nchs_urbanization": "Non-core",
    "total_population": 19538,
    "confirmed": 645,
    "confirmed_per_100000": 3301.26,
    "deaths": 18,
    "deaths_per_100000": 92.13,
    "location": "POINT(-87.78796182 32.24767634)"
  },
  {
    "last_update": "2020-09-07 17:28:34 UTC",
    "location_type": "county",
    "state": "Alabama",
    "county_name": "Marion",
    "county_name_long": "Marion, Alabama, US",
    "fips_code": 1093,
    "lat": 34.13697363,
    "lon": -87.88704173,
    "nchs_urbanization": "Non-core",
    "total_population": 29965,
    "confirmed": 749,
    "confirmed_per_100000": 2499.58,
    "deaths": 27,
    "deaths_per_100000": 90.11,
    "location": "POINT(-87.88704173 34.13697363)"
  },
  {
    "last_update": "2020-09-07 17:28:34 UTC",
    "location_type": "county",
    "state": "Alabama",
    "county_name": "Marshall",
    "county_name_long": "Marshall, Alabama, US",
    "fips_code": 1095,
    "lat": 34.36975964,
    "lon": -86.30486727,
    "nchs_urbanization": "Micropolitan",
    "total_population": 95145,
    "confirmed": 3510,
    "confirmed_per_100000": 3689.11,
    "deaths": 41,
    "deaths_per_100000": 43.09,
    "location": "POINT(-86.30486727 34.36975964)"
  },
  {
    "last_update": "2020-09-07 17:28:34 UTC",
    "location_type": "county",
    "state": "Alabama",
    "county_name": "Mobile",
    "county_name_long": "Mobile, Alabama, US",
    "fips_code": 1097,
    "lat": 30.78472347,
    "lon": -88.20842409,
    "nchs_urbanization": "Medium metro",
    "total_population": 414659,
    "confirmed": 12289,
    "confirmed_per_100000": 2963.64,
    "deaths": 265,
    "deaths_per_100000": 63.91,
    "location": "POINT(-88.20842409 30.78472347)"
  },
  {
    "last_update": "2020-09-07 17:28:34 UTC",
    "location_type": "county",
    "state": "Alabama",
    "county_name": "Monroe",
    "county_name_long": "Monroe, Alabama, US",
    "fips_code": 1099,
    "lat": 31.56729412,
    "lon": -87.36995001,
    "nchs_urbanization": "Non-core",
    "total_population": 21512,
    "confirmed": 437,
    "confirmed_per_100000": 2031.42,
    "deaths": 6,
    "deaths_per_100000": 27.89,
    "location": "POINT(-87.36995001 31.56729412)"
  },
  {
    "last_update": "2020-09-07 17:28:34 UTC",
    "location_type": "county",
    "state": "Alabama",
    "county_name": "Montgomery",
    "county_name_long": "Montgomery, Alabama, US",
    "fips_code": 1101,
    "lat": 32.2206831,
    "lon": -86.20969272,
    "nchs_urbanization": "Medium metro",
    "total_population": 226941,
    "confirmed": 7956,
    "confirmed_per_100000": 3505.76,
    "deaths": 163,
    "deaths_per_100000": 71.82,
    "location": "POINT(-86.20969272 32.2206831)"
  },
  {
    "last_update": "2020-09-07 17:28:34 UTC",
    "location_type": "county",
    "state": "Alabama",
    "county_name": "Morgan",
    "county_name_long": "Morgan, Alabama, US",
    "fips_code": 1103,
    "lat": 34.45500589,
    "lon": -86.85475946,
    "nchs_urbanization": "Small metro",
    "total_population": 119122,
    "confirmed": 2891,
    "confirmed_per_100000": 2426.92,
    "deaths": 22,
    "deaths_per_100000": 18.47,
    "location": "POINT(-86.85475946 34.45500589)"
  },
  {
    "last_update": "2020-09-07 17:28:34 UTC",
    "location_type": "county",
    "state": "Alabama",
    "county_name": "Perry",
    "county_name_long": "Perry, Alabama, US",
    "fips_code": 1105,
    "lat": 32.64048341,
    "lon": -87.29770589,
    "nchs_urbanization": "Non-core",
    "total_population": 9486,
    "confirmed": 483,
    "confirmed_per_100000": 5091.71,
    "deaths": 5,
    "deaths_per_100000": 52.71,
    "location": "POINT(-87.29770589 32.64048341)"
  },
  {
    "last_update": "2020-09-07 17:28:34 UTC",
    "location_type": "county",
    "state": "Alabama",
    "county_name": "Pickens",
    "county_name_long": "Pickens, Alabama, US",
    "fips_code": 1107,
    "lat": 33.28094866,
    "lon": -88.08818103,
    "nchs_urbanization": "Small metro",
    "total_population": 20298,
    "confirmed": 544,
    "confirmed_per_100000": 2680.07,
    "deaths": 11,
    "deaths_per_100000": 54.19,
    "location": "POINT(-88.08818103 33.28094866)"
  },
  {
    "last_update": "2020-09-07 17:28:34 UTC",
    "location_type": "county",
    "state": "Alabama",
    "county_name": "Pike",
    "county_name_long": "Pike, Alabama, US",
    "fips_code": 1109,
    "lat": 31.80396383,
    "lon": -85.9408295,
    "nchs_urbanization": "Micropolitan",
    "total_population": 33403,
    "confirmed": 851,
    "confirmed_per_100000": 2547.68,
    "deaths": 7,
    "deaths_per_100000": 20.96,
    "location": "POINT(-85.9408295 31.80396383)"
  },
  {
    "last_update": "2020-09-07 17:28:34 UTC",
    "location_type": "county",
    "state": "Alabama",
    "county_name": "Randolph",
    "county_name_long": "Randolph, Alabama, US",
    "fips_code": 1111,
    "lat": 33.29526734,
    "lon": -85.45708831,
    "nchs_urbanization": "Non-core",
    "total_population": 22574,
    "confirmed": 494,
    "confirmed_per_100000": 2188.36,
    "deaths": 11,
    "deaths_per_100000": 48.73,
    "location": "POINT(-85.45708831 33.29526734)"
  },
  {
    "last_update": "2020-09-07 17:28:34 UTC",
    "location_type": "county",
    "state": "Alabama",
    "county_name": "Russell",
    "county_name_long": "Russell, Alabama, US",
    "fips_code": 1113,
    "lat": 32.28725256,
    "lon": -85.18415324,
    "nchs_urbanization": "Medium metro",
    "total_population": 58213,
    "confirmed": 1565,
    "confirmed_per_100000": 2688.4,
    "deaths": 2,
    "deaths_per_100000": 3.44,
    "location": "POINT(-85.18415324 32.28725256)"
  },
  {
    "last_update": "2020-09-07 17:28:34 UTC",
    "location_type": "county",
    "state": "Alabama",
    "county_name": "Shelby",
    "county_name_long": "Shelby, Alabama, US",
    "fips_code": 1117,
    "lat": 33.26879845,
    "lon": -86.66232561,
    "nchs_urbanization": "Large fringe metro",
    "total_population": 211261,
    "confirmed": 4345,
    "confirmed_per_100000": 2056.7,
    "deaths": 40,
    "deaths_per_100000": 18.93,
    "location": "POINT(-86.66232561 33.26879845)"
  },
  {
    "last_update": "2020-09-07 17:28:34 UTC",
    "location_type": "county",
    "state": "Alabama",
    "county_name": "St. Clair",
    "county_name_long": "St. Clair, Alabama, US",
    "fips_code": 1115,
    "lat": 33.71902176,
    "lon": -86.31029372,
    "nchs_urbanization": "Large fringe metro",
    "total_population": 87306,
    "confirmed": 1720,
    "confirmed_per_100000": 1970.08,
    "deaths": 31,
    "deaths_per_100000": 35.51,
    "location": "POINT(-86.31029372 33.71902176)"
  },
  {
    "last_update": "2020-09-07 17:28:34 UTC",
    "location_type": "county",
    "state": "Alabama",
    "county_name": "Sumter",
    "county_name_long": "Sumter, Alabama, US",
    "fips_code": 1119,
    "lat": 32.59117397,
    "lon": -88.19916205,
    "nchs_urbanization": "Non-core",
    "total_population": 12985,
    "confirmed": 403,
    "confirmed_per_100000": 3103.58,
    "deaths": 19,
    "deaths_per_100000": 146.32,
    "location": "POINT(-88.19916205 32.59117397)"
  },
  {
    "last_update": "2020-09-07 17:28:34 UTC",
    "location_type": "county",
    "state": "Alabama",
    "county_name": "Talladega",
    "county_name_long": "Talladega, Alabama, US",
    "fips_code": 1121,
    "lat": 33.37823223,
    "lon": -86.16886178,
    "nchs_urbanization": "Micropolitan",
    "total_population": 80565,
    "confirmed": 1312,
    "confirmed_per_100000": 1628.5,
    "deaths": 21,
    "deaths_per_100000": 26.07,
    "location": "POINT(-86.16886178 33.37823223)"
  },
  {
    "last_update": "2020-09-07 17:28:34 UTC",
    "location_type": "county",
    "state": "Alabama",
    "county_name": "Tallapoosa",
    "county_name_long": "Tallapoosa, Alabama, US",
    "fips_code": 1123,
    "lat": 32.86698258,
    "lon": -85.79833053,
    "nchs_urbanization": "Non-core",
    "total_population": 40636,
    "confirmed": 942,
    "confirmed_per_100000": 2318.14,
    "deaths": 82,
    "deaths_per_100000": 201.79,
    "location": "POINT(-85.79833053 32.86698258)"
  },
  {
    "last_update": "2020-09-07 17:28:34 UTC",
    "location_type": "county",
    "state": "Alabama",
    "county_name": "Tuscaloosa",
    "county_name_long": "Tuscaloosa, Alabama, US",
    "fips_code": 1125,
    "lat": 33.28726072,
    "lon": -87.52556818,
    "nchs_urbanization": "Small metro",
    "total_population": 206213,
    "confirmed": 5352,
    "confirmed_per_100000": 2595.37,
    "deaths": 94,
    "deaths_per_100000": 45.58,
    "location": "POINT(-87.52556818 33.28726072)"
  },
  {
    "last_update": "2020-09-07 17:28:34 UTC",
    "location_type": "county",
    "state": "Alabama",
    "county_name": "Walker",
    "county_name_long": "Walker, Alabama, US",
    "fips_code": 1127,
    "lat": 33.80270512,
    "lon": -87.30027177,
    "nchs_urbanization": "Large fringe metro",
    "total_population": 64493,
    "confirmed": 1958,
    "confirmed_per_100000": 3035.99,
    "deaths": 74,
    "deaths_per_100000": 114.74,
    "location": "POINT(-87.30027177 33.80270512)"
  },
  {
    "last_update": "2020-09-07 17:28:34 UTC",
    "location_type": "county",
    "state": "Alabama",
    "county_name": "Washington",
    "county_name_long": "Washington, Alabama, US",
    "fips_code": 1129,
    "lat": 31.4092794,
    "lon": -88.20689944,
    "nchs_urbanization": "Non-core",
    "total_population": 16643,
    "confirmed": 500,
    "confirmed_per_100000": 3004.27,
    "deaths": 13,
    "deaths_per_100000": 78.11,
    "location": "POINT(-88.20689944 31.4092794)"
  },
  {
    "last_update": "2020-09-07 17:28:34 UTC",
    "location_type": "county",
    "state": "Alabama",
    "county_name": "Wilcox",
    "county_name_long": "Wilcox, Alabama, US",
    "fips_code": 1131,
    "lat": 31.98773215,
    "lon": -87.30891118,
    "nchs_urbanization": "Non-core",
    "total_population": 10809,
    "confirmed": 474,
    "confirmed_per_100000": 4385.23,
    "deaths": 11,
    "deaths_per_100000": 101.77,
    "location": "POINT(-87.30891118 31.98773215)"
  },
  {
    "last_update": "2020-09-07 17:28:34 UTC",
    "location_type": "county",
    "state": "Alabama",
    "county_name": "Winston",
    "county_name_long": "Winston, Alabama, US",
    "fips_code": 1133,
    "lat": 34.15030532,
    "lon": -87.37325922,
    "nchs_urbanization": "Non-core",
    "total_population": 23875,
    "confirmed": 584,
    "confirmed_per_100000": 2446.07,
    "deaths": 11,
    "deaths_per_100000": 46.07,
    "location": "POINT(-87.37325922 34.15030532)"
  },
  {
    "last_update": "2020-09-07 17:28:34 UTC",
    "location_type": "county",
    "state": "Alaska",
    "county_name": "Aleutians East",
    "county_name_long": "Aleutians East, Alaska, US",
    "fips_code": 2013,
    "lat": 55.32222414,
    "lon": -161.9722021,
    "nchs_urbanization": "Non-core",
    "total_population": 3425,
    "confirmed": 2,
    "confirmed_per_100000": 58.39,
    "deaths": 0,
    "deaths_per_100000": 0,
    "location": "POINT(-161.9722021 55.32222414)"
  },
  {
    "last_update": "2020-09-07 17:28:34 UTC",
    "location_type": "county",
    "state": "Alaska",
    "county_name": "Aleutians West",
    "county_name_long": "Aleutians West, Alaska, US",
    "fips_code": 2016,
    "lat": 52.3233,
    "lon": -174.1596,
    "nchs_urbanization": "Non-core",
    "total_population": 5750,
    "confirmed": 6,
    "confirmed_per_100000": 104.35,
    "deaths": 0,
    "deaths_per_100000": 0,
    "location": "POINT(-174.1596 52.3233)"
  },
  {
    "last_update": "2020-09-07 17:28:34 UTC",
    "location_type": "county",
    "state": "Alaska",
    "county_name": "Anchorage",
    "county_name_long": "Anchorage, Alaska, US",
    "fips_code": 2020,
    "lat": 61.14998174,
    "lon": -149.1426986,
    "nchs_urbanization": "Medium metro",
    "total_population": 296112,
    "confirmed": 3284,
    "confirmed_per_100000": 1109.04,
    "deaths": 25,
    "deaths_per_100000": 8.44,
    "location": "POINT(-149.1426986 61.14998174)"
  },
  {
    "last_update": "2020-09-07 17:28:34 UTC",
    "location_type": "county",
    "state": "Alaska",
    "county_name": "Bethel",
    "county_name_long": "Bethel, Alaska, US",
    "fips_code": 2050,
    "lat": 60.90980451,
    "lon": -159.8561831,
    "nchs_urbanization": "Non-core",
    "total_population": 18040,
    "confirmed": 67,
    "confirmed_per_100000": 371.4,
    "deaths": 1,
    "deaths_per_100000": 5.54,
    "location": "POINT(-159.8561831 60.90980451)"
  },
  {
    "last_update": "2020-09-07 17:28:34 UTC",
    "location_type": "county",
    "state": "Alaska",
    "county_name": "Bristol Bay",
    "county_name_long": "Bristol Bay, Alaska, US",
    "fips_code": 2060,
    "lat": 58.74513976,
    "lon": -156.701064,
    "nchs_urbanization": "Non-core",
    "total_population": 890,
    "confirmed": 10,
    "confirmed_per_100000": 1123.6,
    "deaths": 0,
    "deaths_per_100000": 0,
    "location": "POINT(-156.701064 58.74513976)"
  },
  {
    "last_update": "2020-09-07 17:28:34 UTC",
    "location_type": "county",
    "state": "Alaska",
    "county_name": "Denali",
    "county_name_long": "Denali, Alaska, US",
    "fips_code": 2068,
    "lat": 63.67264044,
    "lon": -150.0076108,
    "nchs_urbanization": "Non-core",
    "total_population": 2232,
    "confirmed": 2,
    "confirmed_per_100000": 89.61,
    "deaths": 0,
    "deaths_per_100000": 0,
    "location": "POINT(-150.0076108 63.67264044)"
  },
  {
    "last_update": "2020-09-07 17:28:34 UTC",
    "location_type": "county",
    "state": "Alaska",
    "county_name": "Dillingham",
    "county_name_long": "Dillingham, Alaska, US",
    "fips_code": 2070,
    "lat": 59.79603738,
    "lon": -158.2381942,
    "nchs_urbanization": "Non-core",
    "total_population": 4975,
    "confirmed": 5,
    "confirmed_per_100000": 100.5,
    "deaths": 0,
    "deaths_per_100000": 0,
    "location": "POINT(-158.2381942 59.79603738)"
  },
  {
    "last_update": "2020-09-07 17:28:34 UTC",
    "location_type": "county",
    "state": "Alaska",
    "county_name": "Fairbanks North Star",
    "county_name_long": "Fairbanks North Star, Alaska, US",
    "fips_code": 2090,
    "lat": 64.80726247,
    "lon": -146.5692662,
    "nchs_urbanization": "Small metro",
    "total_population": 99653,
    "confirmed": 747,
    "confirmed_per_100000": 749.6,
    "deaths": 9,
    "deaths_per_100000": 9.03,
    "location": "POINT(-146.5692662 64.80726247)"
  },
  {
    "last_update": "2020-09-07 17:28:34 UTC",
    "location_type": "county",
    "state": "Alaska",
    "county_name": "Haines",
    "county_name_long": "Haines, Alaska, US",
    "fips_code": 2100,
    "lat": 59.09893571,
    "lon": -135.4679843,
    "nchs_urbanization": "Non-core",
    "total_population": 2518,
    "confirmed": 4,
    "confirmed_per_100000": 158.86,
    "deaths": 0,
    "deaths_per_100000": 0,
    "location": "POINT(-135.4679843 59.09893571)"
  },
  {
    "last_update": "2020-09-07 17:28:34 UTC",
    "location_type": "county",
    "state": "Alaska",
    "county_name": "Juneau",
    "county_name_long": "Juneau, Alaska, US",
    "fips_code": 2110,
    "lat": 58.45031811,
    "lon": -134.200436,
    "nchs_urbanization": "Micropolitan",
    "total_population": 32330,
    "confirmed": 193,
    "confirmed_per_100000": 596.97,
    "deaths": 1,
    "deaths_per_100000": 3.09,
    "location": "POINT(-134.200436 58.45031811)"
  },
  {
    "last_update": "2020-09-07 17:28:34 UTC",
    "location_type": "county",
    "state": "Alaska",
    "county_name": "Kenai Peninsula",
    "county_name_long": "Kenai Peninsula, Alaska, US",
    "fips_code": 2122,
    "lat": 60.24429722,
    "lon": -151.5388884,
    "nchs_urbanization": "Non-core",
    "total_population": 58220,
    "confirmed": 421,
    "confirmed_per_100000": 723.12,
    "deaths": 2,
    "deaths_per_100000": 3.44,
    "location": "POINT(-151.5388884 60.24429722)"
  },
  {
    "last_update": "2020-09-07 17:28:34 UTC",
    "location_type": "county",
    "state": "Alaska",
    "county_name": "Ketchikan Gateway",
    "county_name_long": "Ketchikan Gateway, Alaska, US",
    "fips_code": 2130,
    "lat": 55.57445008,
    "lon": -130.975561,
    "nchs_urbanization": "Micropolitan",
    "total_population": 13804,
    "confirmed": 47,
    "confirmed_per_100000": 340.48,
    "deaths": 0,
    "deaths_per_100000": 0,
    "location": "POINT(-130.975561 55.57445008)"
  },
  {
    "last_update": "2020-09-07 17:28:34 UTC",
    "location_type": "county",
    "state": "Alaska",
    "county_name": "Kodiak Island",
    "county_name_long": "Kodiak Island, Alaska, US",
    "fips_code": 2150,
    "lat": 57.65529415,
    "lon": -153.7493579,
    "nchs_urbanization": "Non-core",
    "total_population": 13649,
    "confirmed": 18,
    "confirmed_per_100000": 131.88,
    "deaths": 0,
    "deaths_per_100000": 0,
    "location": "POINT(-153.7493579 57.65529415)"
  },
  {
    "last_update": "2020-09-07 17:28:34 UTC",
    "location_type": "county",
    "state": "Alaska",
    "county_name": "Kusilvak",
    "county_name_long": "Kusilvak, Alaska, US",
    "fips_code": 2158,
    "lat": 62.1542916,
    "lon": -163.3967883,
    "nchs_urbanization": "Non-core",
    "total_population": 8198,
    "confirmed": 8,
    "confirmed_per_100000": 97.58,
    "deaths": 0,
    "deaths_per_100000": 0,
    "location": "POINT(-163.3967883 62.1542916)"
  },
  {
    "last_update": "2020-09-07 17:28:34 UTC",
    "location_type": "county",
    "state": "Alaska",
    "county_name": "Matanuska-Susitna",
    "county_name_long": "Matanuska-Susitna, Alaska, US",
    "fips_code": 2170,
    "lat": 62.31305045,
    "lon": -149.5741743,
    "nchs_urbanization": "Medium metro",
    "total_population": 103464,
    "confirmed": 508,
    "confirmed_per_100000": 490.99,
    "deaths": 2,
    "deaths_per_100000": 1.93,
    "location": "POINT(-149.5741743 62.31305045)"
  },
  {
    "last_update": "2020-09-07 17:28:34 UTC",
    "location_type": "county",
    "state": "Alaska",
    "county_name": "Nome",
    "county_name_long": "Nome, Alaska, US",
    "fips_code": 2180,
    "lat": 64.90320724,
    "lon": -164.0353804,
    "nchs_urbanization": "Non-core",
    "total_population": 9925,
    "confirmed": 45,
    "confirmed_per_100000": 453.4,
    "deaths": 0,
    "deaths_per_100000": 0,
    "location": "POINT(-164.0353804 64.90320724)"
  },
  {
    "last_update": "2020-09-07 17:28:34 UTC",
    "location_type": "county",
    "state": "Alaska",
    "county_name": "North Slope",
    "county_name_long": "North Slope, Alaska, US",
    "fips_code": 2185,
    "lat": 69.31479216,
    "lon": -153.4836093,
    "nchs_urbanization": "Non-core",
    "total_population": 9797,
    "confirmed": 51,
    "confirmed_per_100000": 520.57,
    "deaths": 0,
    "deaths_per_100000": 0,
    "location": "POINT(-153.4836093 69.31479216)"
  },
  {
    "last_update": "2020-09-07 17:28:34 UTC",
    "location_type": "county",
    "state": "Alaska",
    "county_name": "Northwest Arctic",
    "county_name_long": "Northwest Arctic, Alaska, US",
    "fips_code": 2188,
    "lat": 67.04919196,
    "lon": -159.7503946,
    "nchs_urbanization": "Non-core",
    "total_population": 7734,
    "confirmed": 70,
    "confirmed_per_100000": 905.09,
    "deaths": 0,
    "deaths_per_100000": 0,
    "location": "POINT(-159.7503946 67.04919196)"
  },
  {
    "last_update": "2020-09-07 17:28:34 UTC",
    "location_type": "county",
    "state": "Alaska",
    "county_name": "Petersburg",
    "county_name_long": "Petersburg, Alaska, US",
    "fips_code": 2195,
    "lat": 57.13978948,
    "lon": -132.9540995,
    "nchs_urbanization": "Non-core",
    "total_population": 3255,
    "confirmed": 7,
    "confirmed_per_100000": 215.05,
    "deaths": 1,
    "deaths_per_100000": 30.72,
    "location": "POINT(-132.9540995 57.13978948)"
  },
  {
    "last_update": "2020-09-07 17:28:34 UTC",
    "location_type": "county",
    "state": "Alaska",
    "county_name": "Prince of Wales-Hyder",
    "county_name_long": "Prince of Wales-Hyder, Alaska, US",
    "fips_code": 2198,
    "lat": 55.76261984,
    "lon": -133.0511621,
    "nchs_urbanization": "Non-core",
    "total_population": 6474,
    "confirmed": 27,
    "confirmed_per_100000": 417.05,
    "deaths": 0,
    "deaths_per_100000": 0,
    "location": "POINT(-133.0511621 55.76261984)"
  },
  {
    "last_update": "2020-09-07 17:28:34 UTC",
    "location_type": "county",
    "state": "Alaska",
    "county_name": "Sitka",
    "county_name_long": "Sitka, Alaska, US",
    "fips_code": 2220,
    "lat": 57.24124555,
    "lon": -135.3206587,
    "nchs_urbanization": "Non-core",
    "total_population": 8738,
    "confirmed": 38,
    "confirmed_per_100000": 434.88,
    "deaths": 0,
    "deaths_per_100000": 0,
    "location": "POINT(-135.3206587 57.24124555)"
  },
  {
    "last_update": "2020-09-07 17:28:34 UTC",
    "location_type": "county",
    "state": "Alaska",
    "county_name": "Southeast Fairbanks",
    "county_name_long": "Southeast Fairbanks, Alaska, US",
    "fips_code": 2240,
    "lat": 63.87692095,
    "lon": -143.2127643,
    "nchs_urbanization": "Non-core",
    "total_population": 6876,
    "confirmed": 19,
    "confirmed_per_100000": 276.32,
    "deaths": 0,
    "deaths_per_100000": 0,
    "location": "POINT(-143.2127643 63.87692095)"
  },
  {
    "last_update": "2020-09-07 17:28:34 UTC",
    "location_type": "county",
    "state": "Alaska",
    "county_name": "Valdez-Cordova",
    "county_name_long": "Valdez-Cordova, Alaska, US",
    "fips_code": 2261,
    "lat": 61.47502768,
    "lon": -144.7126799,
    "nchs_urbanization": "Non-core",
    "total_population": 9301,
    "confirmed": 75,
    "confirmed_per_100000": 806.36,
    "deaths": 0,
    "deaths_per_100000": 0,
    "location": "POINT(-144.7126799 61.47502768)"
  },
  {
    "last_update": "2020-09-07 17:28:34 UTC",
    "location_type": "county",
    "state": "Alaska",
    "county_name": "Wrangell",
    "county_name_long": "Wrangell, Alaska, US",
    "fips_code": 2275,
    "lat": 56.3202004,
    "lon": -132.0583731,
    "nchs_urbanization": "Non-core",
    "total_population": 2484,
    "confirmed": 12,
    "confirmed_per_100000": 483.09,
    "deaths": 0,
    "deaths_per_100000": 0,
    "location": "POINT(-132.0583731 56.3202004)"
  },
  {
    "last_update": "2020-09-07 17:28:34 UTC",
    "location_type": "county",
    "state": "Alaska",
    "county_name": "Yakutat",
    "county_name_long": "Yakutat, Alaska, US",
    "fips_code": 2282,
    "lat": 59.8909808,
    "lon": -140.3601451,
    "nchs_urbanization": "Non-core",
    "total_population": 689,
    "confirmed": 21,
    "confirmed_per_100000": 3047.9,
    "deaths": 0,
    "deaths_per_100000": 0,
    "location": "POINT(-140.3601451 59.8909808)"
  },
  {
    "last_update": "2020-09-07 17:28:34 UTC",
    "location_type": "county",
    "state": "Alaska",
    "county_name": "Yukon-Koyukuk",
    "county_name_long": "Yukon-Koyukuk, Alaska, US",
    "fips_code": 2290,
    "lat": 65.50815459,
    "lon": -151.3907387,
    "nchs_urbanization": "Non-core",
    "total_population": 5415,
    "confirmed": 72,
    "confirmed_per_100000": 1329.64,
    "deaths": 1,
    "deaths_per_100000": 18.47,
    "location": "POINT(-151.3907387 65.50815459)"
  },
  {
    "last_update": "2020-09-07 17:28:34 UTC",
    "location_type": "county",
    "state": "Arizona",
    "county_name": "Apache",
    "county_name_long": "Apache, Arizona, US",
    "fips_code": 4001,
    "lat": 35.39465006,
    "lon": -109.4892383,
    "nchs_urbanization": "Non-core",
    "total_population": 71522,
    "confirmed": 3372,
    "confirmed_per_100000": 4714.63,
    "deaths": 154,
    "deaths_per_100000": 215.32,
    "location": "POINT(-109.4892383 35.39465006)"
  },
  {
    "last_update": "2020-09-07 17:28:34 UTC",
    "location_type": "county",
    "state": "Arizona",
    "county_name": "Cochise",
    "county_name_long": "Cochise, Arizona, US",
    "fips_code": 4003,
    "lat": 31.87934684,
    "lon": -109.7516088,
    "nchs_urbanization": "Small metro",
    "total_population": 126279,
    "confirmed": 1841,
    "confirmed_per_100000": 1457.88,
    "deaths": 64,
    "deaths_per_100000": 50.68,
    "location": "POINT(-109.7516088 31.87934684)"
  },
  {
    "last_update": "2020-09-07 17:28:34 UTC",
    "location_type": "county",
    "state": "Arizona",
    "county_name": "Coconino",
    "county_name_long": "Coconino, Arizona, US",
    "fips_code": 4005,
    "lat": 35.83883429,
    "lon": -111.7707178,
    "nchs_urbanization": "Small metro",
    "total_population": 140217,
    "confirmed": 3394,
    "confirmed_per_100000": 2420.53,
    "deaths": 128,
    "deaths_per_100000": 91.29,
    "location": "POINT(-111.7707178 35.83883429)"
  },
  {
    "last_update": "2020-09-07 17:28:34 UTC",
    "location_type": "county",
    "state": "Arizona",
    "county_name": "Gila",
    "county_name_long": "Gila, Arizona, US",
    "fips_code": 4007,
    "lat": 33.80190085,
    "lon": -110.8132779,
    "nchs_urbanization": "Micropolitan",
    "total_population": 53400,
    "confirmed": 1132,
    "confirmed_per_100000": 2119.85,
    "deaths": 50,
    "deaths_per_100000": 93.63,
    "location": "POINT(-110.8132779 33.80190085)"
  },
  {
    "last_update": "2020-09-07 17:28:34 UTC",
    "location_type": "county",
    "state": "Arizona",
    "county_name": "Graham",
    "county_name_long": "Graham, Arizona, US",
    "fips_code": 4009,
    "lat": 32.93166885,
    "lon": -109.8882178,
    "nchs_urbanization": "Micropolitan",
    "total_population": 37879,
    "confirmed": 766,
    "confirmed_per_100000": 2022.23,
    "deaths": 23,
    "deaths_per_100000": 60.72,
    "location": "POINT(-109.8882178 32.93166885)"
  },
  {
    "last_update": "2020-09-07 17:28:34 UTC",
    "location_type": "county",
    "state": "Arizona",
    "county_name": "Greenlee",
    "county_name_long": "Greenlee, Arizona, US",
    "fips_code": 4011,
    "lat": 33.21498827,
    "lon": -109.2405279,
    "nchs_urbanization": "Non-core",
    "total_population": 9504,
    "confirmed": 59,
    "confirmed_per_100000": 620.79,
    "deaths": 1,
    "deaths_per_100000": 10.52,
    "location": "POINT(-109.2405279 33.21498827)"
  },
  {
    "last_update": "2020-09-07 17:28:34 UTC",
    "location_type": "county",
    "state": "Arizona",
    "county_name": "La Paz",
    "county_name_long": "La Paz, Arizona, US",
    "fips_code": 4012,
    "lat": 33.72854224,
    "lon": -113.9810029,
    "nchs_urbanization": "Non-core",
    "total_population": 20701,
    "confirmed": 517,
    "confirmed_per_100000": 2497.46,
    "deaths": 15,
    "deaths_per_100000": 72.46,
    "location": "POINT(-113.9810029 33.72854224)"
  },
  {
    "last_update": "2020-09-07 17:28:34 UTC",
    "location_type": "county",
    "state": "Arizona",
    "county_name": "Maricopa",
    "county_name_long": "Maricopa, Arizona, US",
    "fips_code": 4013,
    "lat": 33.34835867,
    "lon": -112.4918154,
    "nchs_urbanization": "Large central metro",
    "total_population": 4253913,
    "confirmed": 136004,
    "confirmed_per_100000": 3197.15,
    "deaths": 3091,
    "deaths_per_100000": 72.66,
    "location": "POINT(-112.4918154 33.34835867)"
  },
  {
    "last_update": "2020-09-07 17:28:34 UTC",
    "location_type": "county",
    "state": "Arizona",
    "county_name": "Mohave",
    "county_name_long": "Mohave, Arizona, US",
    "fips_code": 4015,
    "lat": 35.70471703,
    "lon": -113.7577902,
    "nchs_urbanization": "Small metro",
    "total_population": 206064,
    "confirmed": 3762,
    "confirmed_per_100000": 1825.65,
    "deaths": 214,
    "deaths_per_100000": 103.85,
    "location": "POINT(-113.7577902 35.70471703)"
  },
  {
    "last_update": "2020-09-07 17:28:34 UTC",
    "location_type": "county",
    "state": "Arizona",
    "county_name": "Navajo",
    "county_name_long": "Navajo, Arizona, US",
    "fips_code": 4017,
    "lat": 35.3997715,
    "lon": -110.3218983,
    "nchs_urbanization": "Micropolitan",
    "total_population": 108705,
    "confirmed": 5659,
    "confirmed_per_100000": 5205.83,
    "deaths": 223,
    "deaths_per_100000": 205.14,
    "location": "POINT(-110.3218983 35.3997715)"
  },
  {
    "last_update": "2020-09-07 17:28:34 UTC",
    "location_type": "county",
    "state": "Arizona",
    "county_name": "Pima",
    "county_name_long": "Pima, Arizona, US",
    "fips_code": 4019,
    "lat": 32.0971334,
    "lon": -111.7890033,
    "nchs_urbanization": "Medium metro",
    "total_population": 1019722,
    "confirmed": 22000,
    "confirmed_per_100000": 2157.45,
    "deaths": 596,
    "deaths_per_100000": 58.45,
    "location": "POINT(-111.7890033 32.0971334)"
  },
  {
    "last_update": "2020-09-07 17:28:34 UTC",
    "location_type": "county",
    "state": "Arizona",
    "county_name": "Pinal",
    "county_name_long": "Pinal, Arizona, US",
    "fips_code": 4021,
    "lat": 32.90525627,
    "lon": -111.3449483,
    "nchs_urbanization": "Large fringe metro",
    "total_population": 419721,
    "confirmed": 9981,
    "confirmed_per_100000": 2378.01,
    "deaths": 190,
    "deaths_per_100000": 45.27,
    "location": "POINT(-111.3449483 32.90525627)"
  },
  {
    "last_update": "2020-09-07 17:28:34 UTC",
    "location_type": "county",
    "state": "Arizona",
    "county_name": "Santa Cruz",
    "county_name_long": "Santa Cruz, Arizona, US",
    "fips_code": 4023,
    "lat": 31.52508998,
    "lon": -110.8479088,
    "nchs_urbanization": "Micropolitan",
    "total_population": 46584,
    "confirmed": 2775,
    "confirmed_per_100000": 5956.98,
    "deaths": 59,
    "deaths_per_100000": 126.65,
    "location": "POINT(-110.8479088 31.52508998)"
  },
  {
    "last_update": "2020-09-07 17:28:34 UTC",
    "location_type": "county",
    "state": "Arizona",
    "county_name": "Yavapai",
    "county_name_long": "Yavapai, Arizona, US",
    "fips_code": 4025,
    "lat": 34.59933926,
    "lon": -112.5538588,
    "nchs_urbanization": "Small metro",
    "total_population": 224645,
    "confirmed": 2369,
    "confirmed_per_100000": 1054.55,
    "deaths": 79,
    "deaths_per_100000": 35.17,
    "location": "POINT(-112.5538588 34.59933926)"
  },
  {
    "last_update": "2020-09-07 17:28:34 UTC",
    "location_type": "county",
    "state": "Arizona",
    "county_name": "Yuma",
    "county_name_long": "Yuma, Arizona, US",
    "fips_code": 4027,
    "lat": 32.76895712,
    "lon": -113.9066674,
    "nchs_urbanization": "Small metro",
    "total_population": 207829,
    "confirmed": 12333,
    "confirmed_per_100000": 5934.21,
    "deaths": 331,
    "deaths_per_100000": 159.27,
    "location": "POINT(-113.9066674 32.76895712)"
  },
  {
    "last_update": "2020-09-07 17:28:34 UTC",
    "location_type": "county",
    "state": "Arkansas",
    "county_name": "Arkansas",
    "county_name_long": "Arkansas, Arkansas, US",
    "fips_code": 5001,
    "lat": 34.29145151,
    "lon": -91.37277296,
    "nchs_urbanization": "Non-core",
    "total_population": 18124,
    "confirmed": 298,
    "confirmed_per_100000": 1644.23,
    "deaths": 4,
    "deaths_per_100000": 22.07,
    "location": "POINT(-91.37277296 34.29145151)"
  },
  {
    "last_update": "2020-09-07 17:28:34 UTC",
    "location_type": "county",
    "state": "Arkansas",
    "county_name": "Ashley",
    "county_name_long": "Ashley, Arkansas, US",
    "fips_code": 5003,
    "lat": 33.19153461,
    "lon": -91.7698471,
    "nchs_urbanization": "Non-core",
    "total_population": 20537,
    "confirmed": 390,
    "confirmed_per_100000": 1899.01,
    "deaths": 7,
    "deaths_per_100000": 34.08,
    "location": "POINT(-91.7698471 33.19153461)"
  },
  {
    "last_update": "2020-09-07 17:28:34 UTC",
    "location_type": "county",
    "state": "Arkansas",
    "county_name": "Baxter",
    "county_name_long": "Baxter, Arkansas, US",
    "fips_code": 5005,
    "lat": 36.28784385,
    "lon": -92.33782872,
    "nchs_urbanization": "Micropolitan",
    "total_population": 41219,
    "confirmed": 149,
    "confirmed_per_100000": 361.48,
    "deaths": 1,
    "deaths_per_100000": 2.43,
    "location": "POINT(-92.33782872 36.28784385)"
  },
  {
    "last_update": "2020-09-07 17:28:34 UTC",
    "location_type": "county",
    "state": "Arkansas",
    "county_name": "Benton",
    "county_name_long": "Benton, Arkansas, US",
    "fips_code": 5007,
    "lat": 36.33644656,
    "lon": -94.25680817,
    "nchs_urbanization": "Medium metro",
    "total_population": 258980,
    "confirmed": 5632,
    "confirmed_per_100000": 2174.69,
    "deaths": 59,
    "deaths_per_100000": 22.78,
    "location": "POINT(-94.25680817 36.33644656)"
  },
  {
    "last_update": "2020-09-07 17:28:34 UTC",
    "location_type": "county",
    "state": "Arkansas",
    "county_name": "Boone",
    "county_name_long": "Boone, Arkansas, US",
    "fips_code": 5009,
    "lat": 36.3084504,
    "lon": -93.09374925,
    "nchs_urbanization": "Micropolitan",
    "total_population": 37288,
    "confirmed": 408,
    "confirmed_per_100000": 1094.19,
    "deaths": 4,
    "deaths_per_100000": 10.73,
    "location": "POINT(-93.09374925 36.3084504)"
  },
  {
    "last_update": "2020-09-07 17:28:34 UTC",
    "location_type": "county",
    "state": "Arkansas",
    "county_name": "Bradley",
    "county_name_long": "Bradley, Arkansas, US",
    "fips_code": 5011,
    "lat": 33.46755808,
    "lon": -92.15980837,
    "nchs_urbanization": "Non-core",
    "total_population": 10948,
    "confirmed": 311,
    "confirmed_per_100000": 2840.7,
    "deaths": 6,
    "deaths_per_100000": 54.8,
    "location": "POINT(-92.15980837 33.46755808)"
  },
  {
    "last_update": "2020-09-07 17:28:34 UTC",
    "location_type": "county",
    "state": "Arkansas",
    "county_name": "Calhoun",
    "county_name_long": "Calhoun, Arkansas, US",
    "fips_code": 5013,
    "lat": 33.55598792,
    "lon": -92.49974403,
    "nchs_urbanization": "Micropolitan",
    "total_population": 5202,
    "confirmed": 24,
    "confirmed_per_100000": 461.36,
    "deaths": 0,
    "deaths_per_100000": 0,
    "location": "POINT(-92.49974403 33.55598792)"
  },
  {
    "last_update": "2020-09-07 17:28:34 UTC",
    "location_type": "county",
    "state": "Arkansas",
    "county_name": "Carroll",
    "county_name_long": "Carroll, Arkansas, US",
    "fips_code": 5015,
    "lat": 36.3403856,
    "lon": -93.54270261,
    "nchs_urbanization": "Non-core",
    "total_population": 27887,
    "confirmed": 501,
    "confirmed_per_100000": 1796.54,
    "deaths": 8,
    "deaths_per_100000": 28.69,
    "location": "POINT(-93.54270261 36.3403856)"
  },
  {
    "last_update": "2020-09-07 17:28:34 UTC",
    "location_type": "county",
    "state": "Arkansas",
    "county_name": "Chicot",
    "county_name_long": "Chicot, Arkansas, US",
    "fips_code": 5017,
    "lat": 33.26458973,
    "lon": -91.29539209,
    "nchs_urbanization": "Non-core",
    "total_population": 10826,
    "confirmed": 969,
    "confirmed_per_100000": 8950.67,
    "deaths": 11,
    "deaths_per_100000": 101.61,
    "location": "POINT(-91.29539209 33.26458973)"
  },
  {
    "last_update": "2020-09-07 17:28:34 UTC",
    "location_type": "county",
    "state": "Arkansas",
    "county_name": "Clark",
    "county_name_long": "Clark, Arkansas, US",
    "fips_code": 5019,
    "lat": 34.04613432,
    "lon": -93.17484713,
    "nchs_urbanization": "Micropolitan",
    "total_population": 22385,
    "confirmed": 263,
    "confirmed_per_100000": 1174.89,
    "deaths": 4,
    "deaths_per_100000": 17.87,
    "location": "POINT(-93.17484713 34.04613432)"
  },
  {
    "last_update": "2020-09-07 17:28:34 UTC",
    "location_type": "county",
    "state": "Arkansas",
    "county_name": "Clay",
    "county_name_long": "Clay, Arkansas, US",
    "fips_code": 5021,
    "lat": 36.36826212,
    "lon": -90.4148172,
    "nchs_urbanization": "Non-core",
    "total_population": 15061,
    "confirmed": 209,
    "confirmed_per_100000": 1387.69,
    "deaths": 5,
    "deaths_per_100000": 33.2,
    "location": "POINT(-90.4148172 36.36826212)"
  },
  {
    "last_update": "2020-09-07 17:28:34 UTC",
    "location_type": "county",
    "state": "Arkansas",
    "county_name": "Cleburne",
    "county_name_long": "Cleburne, Arkansas, US",
    "fips_code": 5023,
    "lat": 35.53864922,
    "lon": -92.02640019,
    "nchs_urbanization": "Non-core",
    "total_population": 25230,
    "confirmed": 267,
    "confirmed_per_100000": 1058.26,
    "deaths": 7,
    "deaths_per_100000": 27.74,
    "location": "POINT(-92.02640019 35.53864922)"
  },
  {
    "last_update": "2020-09-07 17:28:34 UTC",
    "location_type": "county",
    "state": "Arkansas",
    "county_name": "Cleveland",
    "county_name_long": "Cleveland, Arkansas, US",
    "fips_code": 5025,
    "lat": 33.89723187,
    "lon": -92.18537045,
    "nchs_urbanization": "Small metro",
    "total_population": 8226,
    "confirmed": 142,
    "confirmed_per_100000": 1726.23,
    "deaths": 7,
    "deaths_per_100000": 85.1,
    "location": "POINT(-92.18537045 33.89723187)"
  },
  {
    "last_update": "2020-09-07 17:28:34 UTC",
    "location_type": "county",
    "state": "Arkansas",
    "county_name": "Columbia",
    "county_name_long": "Columbia, Arkansas, US",
    "fips_code": 5027,
    "lat": 33.21230701,
    "lon": -93.22642793,
    "nchs_urbanization": "Micropolitan",
    "total_population": 23892,
    "confirmed": 317,
    "confirmed_per_100000": 1326.8,
    "deaths": 15,
    "deaths_per_100000": 62.78,
    "location": "POINT(-93.22642793 33.21230701)"
  },
  {
    "last_update": "2020-09-07 17:28:34 UTC",
    "location_type": "county",
    "state": "Arkansas",
    "county_name": "Conway",
    "county_name_long": "Conway, Arkansas, US",
    "fips_code": 5029,
    "lat": 35.26205537,
    "lon": -92.70506566,
    "nchs_urbanization": "Non-core",
    "total_population": 20906,
    "confirmed": 219,
    "confirmed_per_100000": 1047.55,
    "deaths": 3,
    "deaths_per_100000": 14.35,
    "location": "POINT(-92.70506566 35.26205537)"
  },
  {
    "last_update": "2020-09-07 17:28:34 UTC",
    "location_type": "county",
    "state": "Arkansas",
    "county_name": "Craighead",
    "county_name_long": "Craighead, Arkansas, US",
    "fips_code": 5031,
    "lat": 35.83018283,
    "lon": -90.63235729,
    "nchs_urbanization": "Small metro",
    "total_population": 105701,
    "confirmed": 2079,
    "confirmed_per_100000": 1966.87,
    "deaths": 16,
    "deaths_per_100000": 15.14,
    "location": "POINT(-90.63235729 35.83018283)"
  },
  {
    "last_update": "2020-09-07 17:28:34 UTC",
    "location_type": "county",
    "state": "Arkansas",
    "county_name": "Crawford",
    "county_name_long": "Crawford, Arkansas, US",
    "fips_code": 5033,
    "lat": 35.58928601,
    "lon": -94.2446814,
    "nchs_urbanization": "Medium metro",
    "total_population": 62472,
    "confirmed": 992,
    "confirmed_per_100000": 1587.91,
    "deaths": 9,
    "deaths_per_100000": 14.41,
    "location": "POINT(-94.2446814 35.58928601)"
  },
  {
    "last_update": "2020-09-07 17:28:34 UTC",
    "location_type": "county",
    "state": "Arkansas",
    "county_name": "Crittenden",
    "county_name_long": "Crittenden, Arkansas, US",
    "fips_code": 5035,
    "lat": 35.21247318,
    "lon": -90.30839406,
    "nchs_urbanization": "Large fringe metro",
    "total_population": 49013,
    "confirmed": 1713,
    "confirmed_per_100000": 3494.99,
    "deaths": 35,
    "deaths_per_100000": 71.41,
    "location": "POINT(-90.30839406 35.21247318)"
  },
  {
    "last_update": "2020-09-07 17:28:34 UTC",
    "location_type": "county",
    "state": "Arkansas",
    "county_name": "Cross",
    "county_name_long": "Cross, Arkansas, US",
    "fips_code": 5037,
    "lat": 35.29631396,
    "lon": -90.77185818,
    "nchs_urbanization": "Non-core",
    "total_population": 16998,
    "confirmed": 304,
    "confirmed_per_100000": 1788.45,
    "deaths": 5,
    "deaths_per_100000": 29.42,
    "location": "POINT(-90.77185818 35.29631396)"
  },
  {
    "last_update": "2020-09-07 17:28:34 UTC",
    "location_type": "county",
    "state": "Arkansas",
    "county_name": "Dallas",
    "county_name_long": "Dallas, Arkansas, US",
    "fips_code": 5039,
    "lat": 33.97042763,
    "lon": -92.65167437,
    "nchs_urbanization": "Non-core",
    "total_population": 7432,
    "confirmed": 135,
    "confirmed_per_100000": 1816.47,
    "deaths": 2,
    "deaths_per_100000": 26.91,
    "location": "POINT(-92.65167437 33.97042763)"
  },
  {
    "last_update": "2020-09-07 17:28:34 UTC",
    "location_type": "county",
    "state": "Arkansas",
    "county_name": "Desha",
    "county_name_long": "Desha, Arkansas, US",
    "fips_code": 5041,
    "lat": 33.83011025,
    "lon": -91.25500948,
    "nchs_urbanization": "Non-core",
    "total_population": 11887,
    "confirmed": 253,
    "confirmed_per_100000": 2128.38,
    "deaths": 5,
    "deaths_per_100000": 42.06,
    "location": "POINT(-91.25500948 33.83011025)"
  },
  {
    "last_update": "2020-09-07 17:28:34 UTC",
    "location_type": "county",
    "state": "Arkansas",
    "county_name": "Drew",
    "county_name_long": "Drew, Arkansas, US",
    "fips_code": 5043,
    "lat": 33.59035001,
    "lon": -91.71777921,
    "nchs_urbanization": "Non-core",
    "total_population": 18502,
    "confirmed": 319,
    "confirmed_per_100000": 1724.14,
    "deaths": 5,
    "deaths_per_100000": 27.02,
    "location": "POINT(-91.71777921 33.59035001)"
  },
  {
    "last_update": "2020-09-07 17:28:34 UTC",
    "location_type": "county",
    "state": "Arkansas",
    "county_name": "Faulkner",
    "county_name_long": "Faulkner, Arkansas, US",
    "fips_code": 5045,
    "lat": 35.14719007,
    "lon": -92.33717519,
    "nchs_urbanization": "Medium metro",
    "total_population": 122416,
    "confirmed": 1790,
    "confirmed_per_100000": 1462.23,
    "deaths": 9,
    "deaths_per_100000": 7.35,
    "location": "POINT(-92.33717519 35.14719007)"
  },
  {
    "last_update": "2020-09-07 17:28:34 UTC",
    "location_type": "county",
    "state": "Arkansas",
    "county_name": "Franklin",
    "county_name_long": "Franklin, Arkansas, US",
    "fips_code": 5047,
    "lat": 35.51202821,
    "lon": -93.89299569,
    "nchs_urbanization": "Non-core",
    "total_population": 17780,
    "confirmed": 187,
    "confirmed_per_100000": 1051.74,
    "deaths": 2,
    "deaths_per_100000": 11.25,
    "location": "POINT(-93.89299569 35.51202821)"
  },
  {
    "last_update": "2020-09-07 17:28:34 UTC",
    "location_type": "county",
    "state": "Arkansas",
    "county_name": "Fulton",
    "county_name_long": "Fulton, Arkansas, US",
    "fips_code": 5049,
    "lat": 36.38177105,
    "lon": -91.81729127,
    "nchs_urbanization": "Non-core",
    "total_population": 12139,
    "confirmed": 84,
    "confirmed_per_100000": 691.98,
    "deaths": 1,
    "deaths_per_100000": 8.24,
    "location": "POINT(-91.81729127 36.38177105)"
  },
  {
    "last_update": "2020-09-07 17:28:34 UTC",
    "location_type": "county",
    "state": "Arkansas",
    "county_name": "Garland",
    "county_name_long": "Garland, Arkansas, US",
    "fips_code": 5051,
    "lat": 34.57692074,
    "lon": -93.14921604,
    "nchs_urbanization": "Small metro",
    "total_population": 98296,
    "confirmed": 1518,
    "confirmed_per_100000": 1544.32,
    "deaths": 32,
    "deaths_per_100000": 32.55,
    "location": "POINT(-93.14921604 34.57692074)"
  },
  {
    "last_update": "2020-09-07 17:28:34 UTC",
    "location_type": "county",
    "state": "Arkansas",
    "county_name": "Grant",
    "county_name_long": "Grant, Arkansas, US",
    "fips_code": 5053,
    "lat": 34.29017991,
    "lon": -92.42320562,
    "nchs_urbanization": "Medium metro",
    "total_population": 18086,
    "confirmed": 204,
    "confirmed_per_100000": 1127.94,
    "deaths": 1,
    "deaths_per_100000": 5.53,
    "location": "POINT(-92.42320562 34.29017991)"
  },
  {
    "last_update": "2020-09-07 17:28:34 UTC",
    "location_type": "county",
    "state": "Arkansas",
    "county_name": "Greene",
    "county_name_long": "Greene, Arkansas, US",
    "fips_code": 5055,
    "lat": 36.1173546,
    "lon": -90.55832668,
    "nchs_urbanization": "Micropolitan",
    "total_population": 44623,
    "confirmed": 669,
    "confirmed_per_100000": 1499.23,
    "deaths": 5,
    "deaths_per_100000": 11.2,
    "location": "POINT(-90.55832668 36.1173546)"
  },
  {
    "last_update": "2020-09-07 17:28:34 UTC",
    "location_type": "county",
    "state": "Arkansas",
    "county_name": "Hempstead",
    "county_name_long": "Hempstead, Arkansas, US",
    "fips_code": 5057,
    "lat": 33.73325583,
    "lon": -93.66935133,
    "nchs_urbanization": "Non-core",
    "total_population": 22018,
    "confirmed": 335,
    "confirmed_per_100000": 1521.48,
    "deaths": 3,
    "deaths_per_100000": 13.63,
    "location": "POINT(-93.66935133 33.73325583)"
  },
  {
    "last_update": "2020-09-07 17:28:34 UTC",
    "location_type": "county",
    "state": "Arkansas",
    "county_name": "Hot Spring",
    "county_name_long": "Hot Spring, Arkansas, US",
    "fips_code": 5059,
    "lat": 34.31709259,
    "lon": -92.95396325,
    "nchs_urbanization": "Micropolitan",
    "total_population": 33520,
    "confirmed": 1746,
    "confirmed_per_100000": 5208.83,
    "deaths": 23,
    "deaths_per_100000": 68.62,
    "location": "POINT(-92.95396325 34.31709259)"
  },
  {
    "last_update": "2020-09-07 17:28:34 UTC",
    "location_type": "county",
    "state": "Arkansas",
    "county_name": "Howard",
    "county_name_long": "Howard, Arkansas, US",
    "fips_code": 5061,
    "lat": 34.09007427,
    "lon": -93.9934871,
    "nchs_urbanization": "Non-core",
    "total_population": 13389,
    "confirmed": 435,
    "confirmed_per_100000": 3248.94,
    "deaths": 7,
    "deaths_per_100000": 52.28,
    "location": "POINT(-93.9934871 34.09007427)"
  },
  {
    "last_update": "2020-09-07 17:28:34 UTC",
    "location_type": "county",
    "state": "Arkansas",
    "county_name": "Independence",
    "county_name_long": "Independence, Arkansas, US",
    "fips_code": 5063,
    "lat": 35.74242707,
    "lon": -91.57001641,
    "nchs_urbanization": "Micropolitan",
    "total_population": 37264,
    "confirmed": 813,
    "confirmed_per_100000": 2181.73,
    "deaths": 8,
    "deaths_per_100000": 21.47,
    "location": "POINT(-91.57001641 35.74242707)"
  },
  {
    "last_update": "2020-09-07 17:28:34 UTC",
    "location_type": "county",
    "state": "Arkansas",
    "county_name": "Izard",
    "county_name_long": "Izard, Arkansas, US",
    "fips_code": 5065,
    "lat": 36.09604046,
    "lon": -91.90847954,
    "nchs_urbanization": "Non-core",
    "total_population": 13559,
    "confirmed": 111,
    "confirmed_per_100000": 818.64,
    "deaths": 0,
    "deaths_per_100000": 0,
    "location": "POINT(-91.90847954 36.09604046)"
  },
  {
    "last_update": "2020-09-07 17:28:34 UTC",
    "location_type": "county",
    "state": "Arkansas",
    "county_name": "Jackson",
    "county_name_long": "Jackson, Arkansas, US",
    "fips_code": 5067,
    "lat": 35.59802983,
    "lon": -91.21494602,
    "nchs_urbanization": "Non-core",
    "total_population": 17225,
    "confirmed": 194,
    "confirmed_per_100000": 1126.27,
    "deaths": 1,
    "deaths_per_100000": 5.81,
    "location": "POINT(-91.21494602 35.59802983)"
  },
  {
    "last_update": "2020-09-07 17:28:34 UTC",
    "location_type": "county",
    "state": "Arkansas",
    "county_name": "Jefferson",
    "county_name_long": "Jefferson, Arkansas, US",
    "fips_code": 5069,
    "lat": 34.26767081,
    "lon": -91.92619839,
    "nchs_urbanization": "Small metro",
    "total_population": 70424,
    "confirmed": 2285,
    "confirmed_per_100000": 3244.63,
    "deaths": 52,
    "deaths_per_100000": 73.84,
    "location": "POINT(-91.92619839 34.26767081)"
  },
  {
    "last_update": "2020-09-07 17:28:34 UTC",
    "location_type": "county",
    "state": "Arkansas",
    "county_name": "Johnson",
    "county_name_long": "Johnson, Arkansas, US",
    "fips_code": 5071,
    "lat": 35.56759135,
    "lon": -93.46036368,
    "nchs_urbanization": "Non-core",
    "total_population": 26291,
    "confirmed": 785,
    "confirmed_per_100000": 2985.81,
    "deaths": 4,
    "deaths_per_100000": 15.21,
    "location": "POINT(-93.46036368 35.56759135)"
  },
  {
    "last_update": "2020-09-07 17:28:34 UTC",
    "location_type": "county",
    "state": "Arkansas",
    "county_name": "Lafayette",
    "county_name_long": "Lafayette, Arkansas, US",
    "fips_code": 5073,
    "lat": 33.24116713,
    "lon": -93.60677071,
    "nchs_urbanization": "Non-core",
    "total_population": 6915,
    "confirmed": 76,
    "confirmed_per_100000": 1099.06,
    "deaths": 2,
    "deaths_per_100000": 28.92,
    "location": "POINT(-93.60677071 33.24116713)"
  },
  {
    "last_update": "2020-09-07 17:28:34 UTC",
    "location_type": "county",
    "state": "Arkansas",
    "county_name": "Lawrence",
    "county_name_long": "Lawrence, Arkansas, US",
    "fips_code": 5075,
    "lat": 36.04188196,
    "lon": -91.10867198,
    "nchs_urbanization": "Non-core",
    "total_population": 16669,
    "confirmed": 268,
    "confirmed_per_100000": 1607.77,
    "deaths": 11,
    "deaths_per_100000": 65.99,
    "location": "POINT(-91.10867198 36.04188196)"
  },
  {
    "last_update": "2020-09-07 17:28:34 UTC",
    "location_type": "county",
    "state": "Arkansas",
    "county_name": "Lee",
    "county_name_long": "Lee, Arkansas, US",
    "fips_code": 5077,
    "lat": 34.78498904,
    "lon": -90.78383866,
    "nchs_urbanization": "Non-core",
    "total_population": 9398,
    "confirmed": 1013,
    "confirmed_per_100000": 10778.89,
    "deaths": 11,
    "deaths_per_100000": 117.05,
    "location": "POINT(-90.78383866 34.78498904)"
  },
  {
    "last_update": "2020-09-07 17:28:34 UTC",
    "location_type": "county",
    "state": "Arkansas",
    "county_name": "Lincoln",
    "county_name_long": "Lincoln, Arkansas, US",
    "fips_code": 5079,
    "lat": 33.95317155,
    "lon": -91.74002806,
    "nchs_urbanization": "Small metro",
    "total_population": 13695,
    "confirmed": 1759,
    "confirmed_per_100000": 12844.1,
    "deaths": 13,
    "deaths_per_100000": 94.93,
    "location": "POINT(-91.74002806 33.95317155)"
  },
  {
    "last_update": "2020-09-07 17:28:34 UTC",
    "location_type": "county",
    "state": "Arkansas",
    "county_name": "Little River",
    "county_name_long": "Little River, Arkansas, US",
    "fips_code": 5081,
    "lat": 33.70375665,
    "lon": -94.23468591,
    "nchs_urbanization": "Small metro",
    "total_population": 12417,
    "confirmed": 304,
    "confirmed_per_100000": 2448.26,
    "deaths": 16,
    "deaths_per_100000": 128.86,
    "location": "POINT(-94.23468591 33.70375665)"
  },
  {
    "last_update": "2020-09-07 17:28:34 UTC",
    "location_type": "county",
    "state": "Arkansas",
    "county_name": "Logan",
    "county_name_long": "Logan, Arkansas, US",
    "fips_code": 5083,
    "lat": 35.21413234,
    "lon": -93.71951016,
    "nchs_urbanization": "Non-core",
    "total_population": 21757,
    "confirmed": 369,
    "confirmed_per_100000": 1696.01,
    "deaths": 1,
    "deaths_per_100000": 4.6,
    "location": "POINT(-93.71951016 35.21413234)"
  },
  {
    "last_update": "2020-09-07 17:28:34 UTC",
    "location_type": "county",
    "state": "Arkansas",
    "county_name": "Lonoke",
    "county_name_long": "Lonoke, Arkansas, US",
    "fips_code": 5085,
    "lat": 34.75392199,
    "lon": -91.88742357,
    "nchs_urbanization": "Medium metro",
    "total_population": 72206,
    "confirmed": 776,
    "confirmed_per_100000": 1074.7,
    "deaths": 5,
    "deaths_per_100000": 6.92,
    "location": "POINT(-91.88742357 34.75392199)"
  },
  {
    "last_update": "2020-09-07 17:28:34 UTC",
    "location_type": "county",
    "state": "Arkansas",
    "county_name": "Madison",
    "county_name_long": "Madison, Arkansas, US",
    "fips_code": 5087,
    "lat": 36.01038185,
    "lon": -93.72524943,
    "nchs_urbanization": "Medium metro",
    "total_population": 16076,
    "confirmed": 308,
    "confirmed_per_100000": 1915.9,
    "deaths": 2,
    "deaths_per_100000": 12.44,
    "location": "POINT(-93.72524943 36.01038185)"
  },
  {
    "last_update": "2020-09-07 17:28:34 UTC",
    "location_type": "county",
    "state": "Arkansas",
    "county_name": "Marion",
    "county_name_long": "Marion, Arkansas, US",
    "fips_code": 5089,
    "lat": 36.26844485,
    "lon": -92.68451899,
    "nchs_urbanization": "Non-core",
    "total_population": 16438,
    "confirmed": 51,
    "confirmed_per_100000": 310.26,
    "deaths": 0,
    "deaths_per_100000": 0,
    "location": "POINT(-92.68451899 36.26844485)"
  },
  {
    "last_update": "2020-09-07 17:28:34 UTC",
    "location_type": "county",
    "state": "Arkansas",
    "county_name": "Miller",
    "county_name_long": "Miller, Arkansas, US",
    "fips_code": 5091,
    "lat": 33.31403423,
    "lon": -93.89285258,
    "nchs_urbanization": "Small metro",
    "total_population": 43759,
    "confirmed": 656,
    "confirmed_per_100000": 1499.12,
    "deaths": 10,
    "deaths_per_100000": 22.85,
    "location": "POINT(-93.89285258 33.31403423)"
  },
  {
    "last_update": "2020-09-07 17:28:34 UTC",
    "location_type": "county",
    "state": "Arkansas",
    "county_name": "Mississippi",
    "county_name_long": "Mississippi, Arkansas, US",
    "fips_code": 5093,
    "lat": 35.76271485,
    "lon": -90.0519437,
    "nchs_urbanization": "Micropolitan",
    "total_population": 42831,
    "confirmed": 1433,
    "confirmed_per_100000": 3345.71,
    "deaths": 32,
    "deaths_per_100000": 74.71,
    "location": "POINT(-90.0519437 35.76271485)"
  },
  {
    "last_update": "2020-09-07 17:28:34 UTC",
    "location_type": "county",
    "state": "Arkansas",
    "county_name": "Monroe",
    "county_name_long": "Monroe, Arkansas, US",
    "fips_code": 5095,
    "lat": 34.6815935,
    "lon": -91.20540287,
    "nchs_urbanization": "Non-core",
    "total_population": 7249,
    "confirmed": 100,
    "confirmed_per_100000": 1379.5,
    "deaths": 0,
    "deaths_per_100000": 0,
    "location": "POINT(-91.20540287 34.6815935)"
  },
  {
    "last_update": "2020-09-07 17:28:34 UTC",
    "location_type": "county",
    "state": "Arkansas",
    "county_name": "Montgomery",
    "county_name_long": "Montgomery, Arkansas, US",
    "fips_code": 5097,
    "lat": 34.53704874,
    "lon": -93.65824478,
    "nchs_urbanization": "Non-core",
    "total_population": 8993,
    "confirmed": 118,
    "confirmed_per_100000": 1312.13,
    "deaths": 4,
    "deaths_per_100000": 44.48,
    "location": "POINT(-93.65824478 34.53704874)"
  },
  {
    "last_update": "2020-09-07 17:28:34 UTC",
    "location_type": "county",
    "state": "Arkansas",
    "county_name": "Nevada",
    "county_name_long": "Nevada, Arkansas, US",
    "fips_code": 5099,
    "lat": 33.66340119,
    "lon": -93.30632432,
    "nchs_urbanization": "Non-core",
    "total_population": 8440,
    "confirmed": 166,
    "confirmed_per_100000": 1966.82,
    "deaths": 12,
    "deaths_per_100000": 142.18,
    "location": "POINT(-93.30632432 33.66340119)"
  },
  {
    "last_update": "2020-09-07 17:28:34 UTC",
    "location_type": "county",
    "state": "Arkansas",
    "county_name": "Newton",
    "county_name_long": "Newton, Arkansas, US",
    "fips_code": 5101,
    "lat": 35.91947491,
    "lon": -93.21612969,
    "nchs_urbanization": "Micropolitan",
    "total_population": 7848,
    "confirmed": 144,
    "confirmed_per_100000": 1834.86,
    "deaths": 15,
    "deaths_per_100000": 191.13,
    "location": "POINT(-93.21612969 35.91947491)"
  },
  {
    "last_update": "2020-09-07 17:28:34 UTC",
    "location_type": "county",
    "state": "Arkansas",
    "county_name": "Ouachita",
    "county_name_long": "Ouachita, Arkansas, US",
    "fips_code": 5103,
    "lat": 33.58839816,
    "lon": -92.87795984,
    "nchs_urbanization": "Micropolitan",
    "total_population": 24106,
    "confirmed": 179,
    "confirmed_per_100000": 742.55,
    "deaths": 5,
    "deaths_per_100000": 20.74,
    "location": "POINT(-92.87795984 33.58839816)"
  },
  {
    "last_update": "2020-09-07 17:28:34 UTC",
    "location_type": "county",
    "state": "Arkansas",
    "county_name": "Perry",
    "county_name_long": "Perry, Arkansas, US",
    "fips_code": 5105,
    "lat": 34.9459153,
    "lon": -92.94372564,
    "nchs_urbanization": "Medium metro",
    "total_population": 10322,
    "confirmed": 63,
    "confirmed_per_100000": 610.35,
    "deaths": 0,
    "deaths_per_100000": 0,
    "location": "POINT(-92.94372564 34.9459153)"
  },
  {
    "last_update": "2020-09-07 17:28:34 UTC",
    "location_type": "county",
    "state": "Arkansas",
    "county_name": "Phillips",
    "county_name_long": "Phillips, Arkansas, US",
    "fips_code": 5107,
    "lat": 34.43268455,
    "lon": -90.84800154,
    "nchs_urbanization": "Micropolitan",
    "total_population": 19034,
    "confirmed": 415,
    "confirmed_per_100000": 2180.31,
    "deaths": 10,
    "deaths_per_100000": 52.54,
    "location": "POINT(-90.84800154 34.43268455)"
  },
  {
    "last_update": "2020-09-07 17:28:34 UTC",
    "location_type": "county",
    "state": "Arkansas",
    "county_name": "Pike",
    "county_name_long": "Pike, Arkansas, US",
    "fips_code": 5109,
    "lat": 34.16250414,
    "lon": -93.65789349,
    "nchs_urbanization": "Non-core",
    "total_population": 10808,
    "confirmed": 186,
    "confirmed_per_100000": 1720.95,
    "deaths": 1,
    "deaths_per_100000": 9.25,
    "location": "POINT(-93.65789349 34.16250414)"
  },
  {
    "last_update": "2020-09-07 17:28:34 UTC",
    "location_type": "county",
    "state": "Arkansas",
    "county_name": "Poinsett",
    "county_name_long": "Poinsett, Arkansas, US",
    "fips_code": 5111,
    "lat": 35.57433534,
    "lon": -90.66268713,
    "nchs_urbanization": "Small metro",
    "total_population": 24054,
    "confirmed": 517,
    "confirmed_per_100000": 2149.33,
    "deaths": 6,
    "deaths_per_100000": 24.94,
    "location": "POINT(-90.66268713 35.57433534)"
  },
  {
    "last_update": "2020-09-07 17:28:34 UTC",
    "location_type": "county",
    "state": "Arkansas",
    "county_name": "Polk",
    "county_name_long": "Polk, Arkansas, US",
    "fips_code": 5113,
    "lat": 34.48254879,
    "lon": -94.22728802,
    "nchs_urbanization": "Non-core",
    "total_population": 20163,
    "confirmed": 238,
    "confirmed_per_100000": 1180.38,
    "deaths": 4,
    "deaths_per_100000": 19.84,
    "location": "POINT(-94.22728802 34.48254879)"
  },
  {
    "last_update": "2020-09-07 17:28:34 UTC",
    "location_type": "county",
    "state": "Arkansas",
    "county_name": "Pope",
    "county_name_long": "Pope, Arkansas, US",
    "fips_code": 5115,
    "lat": 35.44871474,
    "lon": -93.03212219,
    "nchs_urbanization": "Micropolitan",
    "total_population": 63644,
    "confirmed": 1871,
    "confirmed_per_100000": 2939.79,
    "deaths": 20,
    "deaths_per_100000": 31.42,
    "location": "POINT(-93.03212219 35.44871474)"
  },
  {
    "last_update": "2020-09-07 17:28:34 UTC",
    "location_type": "county",
    "state": "Arkansas",
    "county_name": "Prairie",
    "county_name_long": "Prairie, Arkansas, US",
    "fips_code": 5117,
    "lat": 34.83624419,
    "lon": -91.55162157,
    "nchs_urbanization": "Non-core",
    "total_population": 8244,
    "confirmed": 121,
    "confirmed_per_100000": 1467.73,
    "deaths": 1,
    "deaths_per_100000": 12.13,
    "location": "POINT(-91.55162157 34.83624419)"
  },
  {
    "last_update": "2020-09-07 17:28:34 UTC",
    "location_type": "county",
    "state": "Arkansas",
    "county_name": "Pulaski",
    "county_name_long": "Pulaski, Arkansas, US",
    "fips_code": 5119,
    "lat": 34.77054088,
    "lon": -92.31355101,
    "nchs_urbanization": "Medium metro",
    "total_population": 393463,
    "confirmed": 7501,
    "confirmed_per_100000": 1906.41,
    "deaths": 113,
    "deaths_per_100000": 28.72,
    "location": "POINT(-92.31355101 34.77054088)"
  },
  {
    "last_update": "2020-09-07 17:28:34 UTC",
    "location_type": "county",
    "state": "Arkansas",
    "county_name": "Randolph",
    "county_name_long": "Randolph, Arkansas, US",
    "fips_code": 5121,
    "lat": 36.3415714,
    "lon": -91.02455531,
    "nchs_urbanization": "Non-core",
    "total_population": 17603,
    "confirmed": 322,
    "confirmed_per_100000": 1829.23,
    "deaths": 18,
    "deaths_per_100000": 102.26,
    "location": "POINT(-91.02455531 36.3415714)"
  },
  {
    "last_update": "2020-09-07 17:28:34 UTC",
    "location_type": "county",
    "state": "Arkansas",
    "county_name": "Saline",
    "county_name_long": "Saline, Arkansas, US",
    "fips_code": 5125,
    "lat": 34.64916145,
    "lon": -92.67583224,
    "nchs_urbanization": "Medium metro",
    "total_population": 118009,
    "confirmed": 1687,
    "confirmed_per_100000": 1429.55,
    "deaths": 14,
    "deaths_per_100000": 11.86,
    "location": "POINT(-92.67583224 34.64916145)"
  },
  {
    "last_update": "2020-09-07 17:28:34 UTC",
    "location_type": "county",
    "state": "Arkansas",
    "county_name": "Scott",
    "county_name_long": "Scott, Arkansas, US",
    "fips_code": 5127,
    "lat": 34.85588887,
    "lon": -94.0632176,
    "nchs_urbanization": "Non-core",
    "total_population": 10442,
    "confirmed": 90,
    "confirmed_per_100000": 861.9,
    "deaths": 0,
    "deaths_per_100000": 0,
    "location": "POINT(-94.0632176 34.85588887)"
  },
  {
    "last_update": "2020-09-07 17:28:34 UTC",
    "location_type": "county",
    "state": "Arkansas",
    "county_name": "Searcy",
    "county_name_long": "Searcy, Arkansas, US",
    "fips_code": 5129,
    "lat": 35.9109364,
    "lon": -92.69936482,
    "nchs_urbanization": "Non-core",
    "total_population": 7923,
    "confirmed": 115,
    "confirmed_per_100000": 1451.47,
    "deaths": 0,
    "deaths_per_100000": 0,
    "location": "POINT(-92.69936482 35.9109364)"
  },
  {
    "last_update": "2020-09-07 17:28:34 UTC",
    "location_type": "county",
    "state": "Arkansas",
    "county_name": "Sebastian",
    "county_name_long": "Sebastian, Arkansas, US",
    "fips_code": 5131,
    "lat": 35.19605503,
    "lon": -94.27162713,
    "nchs_urbanization": "Medium metro",
    "total_population": 127461,
    "confirmed": 3021,
    "confirmed_per_100000": 2370.14,
    "deaths": 35,
    "deaths_per_100000": 27.46,
    "location": "POINT(-94.27162713 35.19605503)"
  },
  {
    "last_update": "2020-09-07 17:28:34 UTC",
    "location_type": "county",
    "state": "Arkansas",
    "county_name": "Sevier",
    "county_name_long": "Sevier, Arkansas, US",
    "fips_code": 5133,
    "lat": 33.99780401,
    "lon": -94.2424869,
    "nchs_urbanization": "Non-core",
    "total_population": 17193,
    "confirmed": 1173,
    "confirmed_per_100000": 6822.54,
    "deaths": 14,
    "deaths_per_100000": 81.43,
    "location": "POINT(-94.2424869 33.99780401)"
  },
  {
    "last_update": "2020-09-07 17:28:34 UTC",
    "location_type": "county",
    "state": "Arkansas",
    "county_name": "Sharp",
    "county_name_long": "Sharp, Arkansas, US",
    "fips_code": 5135,
    "lat": 36.16258158,
    "lon": -91.47819342,
    "nchs_urbanization": "Non-core",
    "total_population": 17043,
    "confirmed": 155,
    "confirmed_per_100000": 909.46,
    "deaths": 5,
    "deaths_per_100000": 29.34,
    "location": "POINT(-91.47819342 36.16258158)"
  },
  {
    "last_update": "2020-09-07 17:28:34 UTC",
    "location_type": "county",
    "state": "Arkansas",
    "county_name": "St. Francis",
    "county_name_long": "St. Francis, Arkansas, US",
    "fips_code": 5123,
    "lat": 35.02201976,
    "lon": -90.74828138,
    "nchs_urbanization": "Micropolitan",
    "total_population": 26294,
    "confirmed": 1372,
    "confirmed_per_100000": 5217.92,
    "deaths": 4,
    "deaths_per_100000": 15.21,
    "location": "POINT(-90.74828138 35.02201976)"
  },
  {
    "last_update": "2020-09-07 17:28:34 UTC",
    "location_type": "county",
    "state": "Arkansas",
    "county_name": "Stone",
    "county_name_long": "Stone, Arkansas, US",
    "fips_code": 5137,
    "lat": 35.86251946,
    "lon": -92.15684085,
    "nchs_urbanization": "Non-core",
    "total_population": 12446,
    "confirmed": 241,
    "confirmed_per_100000": 1936.37,
    "deaths": 4,
    "deaths_per_100000": 32.14,
    "location": "POINT(-92.15684085 35.86251946)"
  },
  {
    "last_update": "2020-09-07 17:28:34 UTC",
    "location_type": "county",
    "state": "Arkansas",
    "county_name": "Union",
    "county_name_long": "Union, Arkansas, US",
    "fips_code": 5139,
    "lat": 33.16887091,
    "lon": -92.59746952,
    "nchs_urbanization": "Micropolitan",
    "total_population": 39732,
    "confirmed": 725,
    "confirmed_per_100000": 1824.73,
    "deaths": 22,
    "deaths_per_100000": 55.37,
    "location": "POINT(-92.59746952 33.16887091)"
  },
  {
    "last_update": "2020-09-07 17:28:34 UTC",
    "location_type": "county",
    "state": "Arkansas",
    "county_name": "Van Buren",
    "county_name_long": "Van Buren, Arkansas, US",
    "fips_code": 5141,
    "lat": 35.58095779,
    "lon": -92.51295036,
    "nchs_urbanization": "Non-core",
    "total_population": 16684,
    "confirmed": 141,
    "confirmed_per_100000": 845.12,
    "deaths": 2,
    "deaths_per_100000": 11.99,
    "location": "POINT(-92.51295036 35.58095779)"
  },
  {
    "last_update": "2020-09-07 17:28:34 UTC",
    "location_type": "county",
    "state": "Arkansas",
    "county_name": "Washington",
    "county_name_long": "Washington, Arkansas, US",
    "fips_code": 5143,
    "lat": 35.976844,
    "lon": -94.21800746,
    "nchs_urbanization": "Medium metro",
    "total_population": 228529,
    "confirmed": 7639,
    "confirmed_per_100000": 3342.68,
    "deaths": 79,
    "deaths_per_100000": 34.57,
    "location": "POINT(-94.21800746 35.976844)"
  },
  {
    "last_update": "2020-09-07 17:28:34 UTC",
    "location_type": "county",
    "state": "Arkansas",
    "county_name": "White",
    "county_name_long": "White, Arkansas, US",
    "fips_code": 5145,
    "lat": 35.25688493,
    "lon": -91.74908296,
    "nchs_urbanization": "Micropolitan",
    "total_population": 78804,
    "confirmed": 570,
    "confirmed_per_100000": 723.31,
    "deaths": 12,
    "deaths_per_100000": 15.23,
    "location": "POINT(-91.74908296 35.25688493)"
  },
  {
    "last_update": "2020-09-07 17:28:34 UTC",
    "location_type": "county",
    "state": "Arkansas",
    "county_name": "Woodruff",
    "county_name_long": "Woodruff, Arkansas, US",
    "fips_code": 5147,
    "lat": 35.18902527,
    "lon": -91.2439489,
    "nchs_urbanization": "Non-core",
    "total_population": 6660,
    "confirmed": 28,
    "confirmed_per_100000": 420.42,
    "deaths": 0,
    "deaths_per_100000": 0,
    "location": "POINT(-91.2439489 35.18902527)"
  },
  {
    "last_update": "2020-09-07 17:28:34 UTC",
    "location_type": "county",
    "state": "Arkansas",
    "county_name": "Yell",
    "county_name_long": "Yell, Arkansas, US",
    "fips_code": 5149,
    "lat": 35.00292371,
    "lon": -93.41171338,
    "nchs_urbanization": "Micropolitan",
    "total_population": 21573,
    "confirmed": 1189,
    "confirmed_per_100000": 5511.52,
    "deaths": 25,
    "deaths_per_100000": 115.89,
    "location": "POINT(-93.41171338 35.00292371)"
  },
  {
    "last_update": "2020-09-07 17:28:34 UTC",
    "location_type": "county",
    "state": "California",
    "county_name": "Alameda",
    "county_name_long": "Alameda, California, US",
    "fips_code": 6001,
    "lat": 37.64629437,
    "lon": -121.8929271,
    "nchs_urbanization": "Large central metro",
    "total_population": 1643700,
    "confirmed": 19188,
    "confirmed_per_100000": 1167.37,
    "deaths": 300,
    "deaths_per_100000": 18.25,
    "location": "POINT(-121.8929271 37.64629437)"
  },
  {
    "last_update": "2020-09-07 17:28:34 UTC",
    "location_type": "county",
    "state": "California",
    "county_name": "Alpine",
    "county_name_long": "Alpine, California, US",
    "fips_code": 6003,
    "lat": 38.59678594,
    "lon": -119.8223594,
    "nchs_urbanization": "Non-core",
    "total_population": 1146,
    "confirmed": 2,
    "confirmed_per_100000": 174.52,
    "deaths": 0,
    "deaths_per_100000": 0,
    "location": "POINT(-119.8223594 38.59678594)"
  },
  {
    "last_update": "2020-09-07 17:28:34 UTC",
    "location_type": "county",
    "state": "California",
    "county_name": "Amador",
    "county_name_long": "Amador, California, US",
    "fips_code": 6005,
    "lat": 38.44583082,
    "lon": -120.65696,
    "nchs_urbanization": "Non-core",
    "total_population": 37829,
    "confirmed": 280,
    "confirmed_per_100000": 740.17,
    "deaths": 16,
    "deaths_per_100000": 42.3,
    "location": "POINT(-120.65696 38.44583082)"
  },
  {
    "last_update": "2020-09-07 17:28:34 UTC",
    "location_type": "county",
    "state": "California",
    "county_name": "Butte",
    "county_name_long": "Butte, California, US",
    "fips_code": 6007,
    "lat": 39.66727762,
    "lon": -121.6005252,
    "nchs_urbanization": "Small metro",
    "total_population": 227075,
    "confirmed": 2406,
    "confirmed_per_100000": 1059.56,
    "deaths": 23,
    "deaths_per_100000": 10.13,
    "location": "POINT(-121.6005252 39.66727762)"
  },
  {
    "last_update": "2020-09-07 17:28:34 UTC",
    "location_type": "county",
    "state": "California",
    "county_name": "Calaveras",
    "county_name_long": "Calaveras, California, US",
    "fips_code": 6009,
    "lat": 38.20537103,
    "lon": -120.552913,
    "nchs_urbanization": "Non-core",
    "total_population": 45235,
    "confirmed": 273,
    "confirmed_per_100000": 603.51,
    "deaths": 2,
    "deaths_per_100000": 4.42,
    "location": "POINT(-120.552913 38.20537103)"
  },
  {
    "last_update": "2020-09-07 17:28:34 UTC",
    "location_type": "county",
    "state": "California",
    "county_name": "Colusa",
    "county_name_long": "Colusa, California, US",
    "fips_code": 6011,
    "lat": 39.17881957,
    "lon": -122.2331726,
    "nchs_urbanization": "Non-core",
    "total_population": 21464,
    "confirmed": 472,
    "confirmed_per_100000": 2199.03,
    "deaths": 6,
    "deaths_per_100000": 27.95,
    "location": "POINT(-122.2331726 39.17881957)"
  },
  {
    "last_update": "2020-09-07 17:28:34 UTC",
    "location_type": "county",
    "state": "California",
    "county_name": "Contra Costa",
    "county_name_long": "Contra Costa, California, US",
    "fips_code": 6013,
    "lat": 37.91923498,
    "lon": -121.9289527,
    "nchs_urbanization": "Large fringe metro",
    "total_population": 1133247,
    "confirmed": 14639,
    "confirmed_per_100000": 1291.77,
    "deaths": 186,
    "deaths_per_100000": 16.41,
    "location": "POINT(-121.9289527 37.91923498)"
  },
  {
    "last_update": "2020-09-07 17:28:34 UTC",
    "location_type": "county",
    "state": "California",
    "county_name": "Del Norte",
    "county_name_long": "Del Norte, California, US",
    "fips_code": 6015,
    "lat": 41.74228275,
    "lon": -123.8974063,
    "nchs_urbanization": "Micropolitan",
    "total_population": 27424,
    "confirmed": 124,
    "confirmed_per_100000": 452.16,
    "deaths": 1,
    "deaths_per_100000": 3.65,
    "location": "POINT(-123.8974063 41.74228275)"
  },
  {
    "last_update": "2020-09-07 17:28:34 UTC",
    "location_type": "county",
    "state": "California",
    "county_name": "El Dorado",
    "county_name_long": "El Dorado, California, US",
    "fips_code": 6017,
    "lat": 38.77965956,
    "lon": -120.5233166,
    "nchs_urbanization": "Large fringe metro",
    "total_population": 186661,
    "confirmed": 1007,
    "confirmed_per_100000": 539.48,
    "deaths": 2,
    "deaths_per_100000": 1.07,
    "location": "POINT(-120.5233166 38.77965956)"
  },
  {
    "last_update": "2020-09-07 17:28:34 UTC",
    "location_type": "county",
    "state": "California",
    "county_name": "Fresno",
    "county_name_long": "Fresno, California, US",
    "fips_code": 6019,
    "lat": 36.75733899,
    "lon": -119.6466953,
    "nchs_urbanization": "Medium metro",
    "total_population": 978130,
    "confirmed": 26325,
    "confirmed_per_100000": 2691.36,
    "deaths": 312,
    "deaths_per_100000": 31.9,
    "location": "POINT(-119.6466953 36.75733899)"
  },
  {
    "last_update": "2020-09-07 17:28:34 UTC",
    "location_type": "county",
    "state": "California",
    "county_name": "Glenn",
    "county_name_long": "Glenn, California, US",
    "fips_code": 6021,
    "lat": 39.59875897,
    "lon": -122.3938452,
    "nchs_urbanization": "Non-core",
    "total_population": 27897,
    "confirmed": 475,
    "confirmed_per_100000": 1702.69,
    "deaths": 3,
    "deaths_per_100000": 10.75,
    "location": "POINT(-122.3938452 39.59875897)"
  },
  {
    "last_update": "2020-09-07 17:28:34 UTC",
    "location_type": "county",
    "state": "California",
    "county_name": "Humboldt",
    "county_name_long": "Humboldt, California, US",
    "fips_code": 6023,
    "lat": 40.69923009,
    "lon": -123.876044,
    "nchs_urbanization": "Micropolitan",
    "total_population": 135768,
    "confirmed": 409,
    "confirmed_per_100000": 301.25,
    "deaths": 4,
    "deaths_per_100000": 2.95,
    "location": "POINT(-123.876044 40.69923009)"
  },
  {
    "last_update": "2020-09-07 17:28:34 UTC",
    "location_type": "county",
    "state": "California",
    "county_name": "Imperial",
    "county_name_long": "Imperial, California, US",
    "fips_code": 6025,
    "lat": 33.0393082,
    "lon": -115.3669042,
    "nchs_urbanization": "Small metro",
    "total_population": 180216,
    "confirmed": 11041,
    "confirmed_per_100000": 6126.54,
    "deaths": 296,
    "deaths_per_100000": 164.25,
    "location": "POINT(-115.3669042 33.0393082)"
  },
  {
    "last_update": "2020-09-07 17:28:34 UTC",
    "location_type": "county",
    "state": "California",
    "county_name": "Inyo",
    "county_name_long": "Inyo, California, US",
    "fips_code": 6027,
    "lat": 36.51112084,
    "lon": -117.4111978,
    "nchs_urbanization": "Non-core",
    "total_population": 18085,
    "confirmed": 183,
    "confirmed_per_100000": 1011.89,
    "deaths": 14,
    "deaths_per_100000": 77.41,
    "location": "POINT(-117.4111978 36.51112084)"
  },
  {
    "last_update": "2020-09-07 17:28:34 UTC",
    "location_type": "county",
    "state": "California",
    "county_name": "Kern",
    "county_name_long": "Kern, California, US",
    "fips_code": 6029,
    "lat": 35.34329425,
    "lon": -118.7277796,
    "nchs_urbanization": "Medium metro",
    "total_population": 883053,
    "confirmed": 30080,
    "confirmed_per_100000": 3406.36,
    "deaths": 296,
    "deaths_per_100000": 33.52,
    "location": "POINT(-118.7277796 35.34329425)"
  },
  {
    "last_update": "2020-09-07 17:28:34 UTC",
    "location_type": "county",
    "state": "California",
    "county_name": "Kings",
    "county_name_long": "Kings, California, US",
    "fips_code": 6031,
    "lat": 36.07409056,
    "lon": -119.8159973,
    "nchs_urbanization": "Small metro",
    "total_population": 150075,
    "confirmed": 6788,
    "confirmed_per_100000": 4523.07,
    "deaths": 76,
    "deaths_per_100000": 50.64,
    "location": "POINT(-119.8159973 36.07409056)"
  },
  {
    "last_update": "2020-09-07 17:28:34 UTC",
    "location_type": "county",
    "state": "California",
    "county_name": "Lake",
    "county_name_long": "Lake, California, US",
    "fips_code": 6033,
    "lat": 39.10124298,
    "lon": -122.7536244,
    "nchs_urbanization": "Micropolitan",
    "total_population": 64148,
    "confirmed": 360,
    "confirmed_per_100000": 561.2,
    "deaths": 5,
    "deaths_per_100000": 7.79,
    "location": "POINT(-122.7536244 39.10124298)"
  },
  {
    "last_update": "2020-09-07 17:28:34 UTC",
    "location_type": "county",
    "state": "California",
    "county_name": "Lassen",
    "county_name_long": "Lassen, California, US",
    "fips_code": 6035,
    "lat": 40.67311306,
    "lon": -120.5935099,
    "nchs_urbanization": "Micropolitan",
    "total_population": 31185,
    "confirmed": 720,
    "confirmed_per_100000": 2308.8,
    "deaths": 0,
    "deaths_per_100000": 0,
    "location": "POINT(-120.5935099 40.67311306)"
  },
  {
    "last_update": "2020-09-07 17:28:34 UTC",
    "location_type": "county",
    "state": "California",
    "county_name": "Los Angeles",
    "county_name_long": "Los Angeles, California, US",
    "fips_code": 6037,
    "lat": 34.30828379,
    "lon": -118.2282411,
    "nchs_urbanization": "Large central metro",
    "total_population": 10098052,
    "confirmed": 248339,
    "confirmed_per_100000": 2459.28,
    "deaths": 6005,
    "deaths_per_100000": 59.47,
    "location": "POINT(-118.2282411 34.30828379)"
  },
  {
    "last_update": "2020-09-07 17:28:34 UTC",
    "location_type": "county",
    "state": "California",
    "county_name": "Madera",
    "county_name_long": "Madera, California, US",
    "fips_code": 6039,
    "lat": 37.21513971,
    "lon": -119.7665589,
    "nchs_urbanization": "Small metro",
    "total_population": 155013,
    "confirmed": 3953,
    "confirmed_per_100000": 2550.11,
    "deaths": 58,
    "deaths_per_100000": 37.42,
    "location": "POINT(-119.7665589 37.21513971)"
  },
  {
    "last_update": "2020-09-07 17:28:34 UTC",
    "location_type": "county",
    "state": "California",
    "county_name": "Marin",
    "county_name_long": "Marin, California, US",
    "fips_code": 6041,
    "lat": 38.07122463,
    "lon": -122.7210631,
    "nchs_urbanization": "Large fringe metro",
    "total_population": 260295,
    "confirmed": 6339,
    "confirmed_per_100000": 2435.31,
    "deaths": 96,
    "deaths_per_100000": 36.88,
    "location": "POINT(-122.7210631 38.07122463)"
  },